<?xml version="1.0" encoding="UTF-8"?>
<wx_station_index>
        <credit>NOAA's National Weather Service</credit>
        <credit_URL>http://weather.gov/</credit_URL>
        <image>
                <url>http://weather.gov/images/xml_logo.gif</url>
                <title>NOAA's National Weather Service</title>
                <link>http://weather.gov</link>
        </image>
        <suggested_pickup>08:00 EST</suggested_pickup>
        <suggested_pickup_period>1140</suggested_pickup_period>
	<station>
		<station_id>PAFE</station_id>
		<state>AK</state>
            	<station_name>Kake Airport</station_name>
		<latitude>56.57N</latitude>
		<longitude>133.54W</longitude>
            	<html_url>http://weather.noaa.gov/weather/current/PAFE.html</html_url>
            	<rss_url>http://weather.gov/data/current_obs/PAFE.rss</rss_url>
            	<xml_url>http://weather.gov/data/current_obs/PAFE.xml</xml_url>
	</station>

	<station>
		<station_id>PAGM</station_id>
		<state>AK</state>
            	<station_name>Gambell Airport</station_name>
		<latitude>63.46N</latitude>
		<longitude>171.44W</longitude>
            	<html_url>http://weather.noaa.gov/weather/current/PAGM.html</html_url>
            	<rss_url>http://weather.gov/data/current_obs/PAGM.rss</rss_url>
            	<xml_url>http://weather.gov/data/current_obs/PAGM.xml</xml_url>
	</station>

	<station>
		<station_id>PAHY</station_id>
		<state>AK</state>
            	<station_name>Hydaburg Seaplane Base</station_name>
		<latitude>55.12N</latitude>
		<longitude>132.50W</longitude>
            	<html_url>http://weather.noaa.gov/weather/current/PAHY.html</html_url>
            	<rss_url>http://weather.gov/data/current_obs/PAHY.rss</rss_url>
            	<xml_url>http://weather.gov/data/current_obs/PAHY.xml</xml_url>
	</station>

	<station>
		<station_id>PASM</station_id>
		<state>AK</state>
            	<station_name>St. Marys Airport</station_name>
		<latitude>62.03N</latitude>
		<longitude>163.18W</longitude>
            	<html_url>http://weather.noaa.gov/weather/current/PASM.html</html_url>
            	<rss_url>http://weather.gov/data/current_obs/PASM.rss</rss_url>
            	<xml_url>http://weather.gov/data/current_obs/PASM.xml</xml_url>
	</station>

	<station>
		<station_id>PASO</station_id>
		<state>AK</state>
            	<station_name>Seldova Airport</station_name>
		<latitude>59.27N</latitude>
		<longitude>151.42W</longitude>
            	<html_url>http://weather.noaa.gov/weather/current/PASO.html</html_url>
            	<rss_url>http://weather.gov/data/current_obs/PASO.rss</rss_url>
            	<xml_url>http://weather.gov/data/current_obs/PASO.xml</xml_url>
	</station>

	<station>
		<station_id>PATG</station_id>
		<state>AK</state>
            	<station_name>Togiak Airport</station_name>
		<latitude>59.03N</latitude>
		<longitude>160.24W</longitude>
            	<html_url>http://weather.noaa.gov/weather/current/PATG.html</html_url>
            	<rss_url>http://weather.gov/data/current_obs/PATG.rss</rss_url>
            	<xml_url>http://weather.gov/data/current_obs/PATG.xml</xml_url>
	</station>

	<station>
		<station_id>PATO</station_id>
		<state>AK</state>
            	<station_name>Portage Glacier</station_name>
		<latitude>60.47N</latitude>
		<longitude>148.50W</longitude>
            	<html_url>http://weather.noaa.gov/weather/current/PATO.html</html_url>
            	<rss_url>http://weather.gov/data/current_obs/PATO.rss</rss_url>
            	<xml_url>http://weather.gov/data/current_obs/PATO.xml</xml_url>
	</station>

	<station>
		<station_id>PAWD</station_id>
		<state>AK</state>
            	<station_name>Seward Airport</station_name>
		<latitude>60.07N</latitude>
		<longitude>149.27W</longitude>
            	<html_url>http://weather.noaa.gov/weather/current/PAWD.html</html_url>
            	<rss_url>http://weather.gov/data/current_obs/PAWD.rss</rss_url>
            	<xml_url>http://weather.gov/data/current_obs/PAWD.xml</xml_url>
	</station>

	<station>
		<station_id>PABR</station_id>
		<state>AK</state>
            	<station_name>Barrow/Wiley Post</station_name>
		<latitude>71.17.07N</latitude>
		<longitude>156.45.57W</longitude>
            	<html_url>http://weather.noaa.gov/weather/current/PABR.html</html_url>
            	<rss_url>http://weather.gov/data/current_obs/PABR.rss</rss_url>
            	<xml_url>http://weather.gov/data/current_obs/PABR.xml</xml_url>
	</station>

	<station>
		<station_id>PACV</station_id>
		<state>AK</state>
            	<station_name>Cordova/Merle K</station_name>
		<latitude>60.29.30N</latitude>
		<longitude>145.28.40W</longitude>
            	<html_url>http://weather.noaa.gov/weather/current/PACV.html</html_url>
            	<rss_url>http://weather.gov/data/current_obs/PACV.rss</rss_url>
            	<xml_url>http://weather.gov/data/current_obs/PACV.xml</xml_url>
	</station>

	<station>
		<station_id>PADK</station_id>
		<state>AK</state>
            	<station_name>Adak Is. NAF</station_name>
		<latitude>51.52.40N</latitude>
		<longitude>176.38.45W</longitude>
            	<html_url>http://weather.noaa.gov/weather/current/PADK.html</html_url>
            	<rss_url>http://weather.gov/data/current_obs/PADK.rss</rss_url>
            	<xml_url>http://weather.gov/data/current_obs/PADK.xml</xml_url>
	</station>

	<station>
		<station_id>PADQ</station_id>
		<state>AK</state>
            	<station_name>Kodiak</station_name>
		<latitude>57.45N</latitude>
		<longitude>152.30W</longitude>
            	<html_url>http://weather.noaa.gov/weather/current/PADQ.html</html_url>
            	<rss_url>http://weather.gov/data/current_obs/PADQ.rss</rss_url>
            	<xml_url>http://weather.gov/data/current_obs/PADQ.xml</xml_url>
	</station>

	<station>
		<station_id>PADU</station_id>
		<state>AK</state>
            	<station_name>Unalaska</station_name>
		<latitude>53.54N</latitude>
		<longitude>166.32W</longitude>
            	<html_url>http://weather.noaa.gov/weather/current/PADU.html</html_url>
            	<rss_url>http://weather.gov/data/current_obs/PADU.rss</rss_url>
            	<xml_url>http://weather.gov/data/current_obs/PADU.xml</xml_url>
	</station>

	<station>
		<station_id>PASI</station_id>
		<state>AK</state>
            	<station_name>Sitka</station_name>
		<latitude>57.02.53N</latitude>
		<longitude>135.21.53W</longitude>
            	<html_url>http://weather.noaa.gov/weather/current/PASI.html</html_url>
            	<rss_url>http://weather.gov/data/current_obs/PASI.rss</rss_url>
            	<xml_url>http://weather.gov/data/current_obs/PASI.xml</xml_url>
	</station>

	<station>
		<station_id>PASN</station_id>
		<state>AK</state>
            	<station_name>St. Paul Is.</station_name>
		<latitude>57.10N</latitude>
		<longitude>170.13W</longitude>
            	<html_url>http://weather.noaa.gov/weather/current/PASN.html</html_url>
            	<rss_url>http://weather.gov/data/current_obs/PASN.rss</rss_url>
            	<xml_url>http://weather.gov/data/current_obs/PASN.xml</xml_url>
	</station>

	<station>
		<station_id>PASY</station_id>
		<state>AK</state>
            	<station_name>Shemya AFB</station_name>
		<latitude>52.43.00N</latitude>
		<longitude>174.07.00E</longitude>
            	<html_url>http://weather.noaa.gov/weather/current/PASY.html</html_url>
            	<rss_url>http://weather.gov/data/current_obs/PASY.rss</rss_url>
            	<xml_url>http://weather.gov/data/current_obs/PASY.xml</xml_url>
	</station>

	<station>
		<station_id>PAUN</station_id>
		<state>AK</state>
            	<station_name>Unalakleet</station_name>
		<latitude>63.53N</latitude>
		<longitude>160.48W</longitude>
            	<html_url>http://weather.noaa.gov/weather/current/PAUN.html</html_url>
            	<rss_url>http://weather.gov/data/current_obs/PAUN.rss</rss_url>
            	<xml_url>http://weather.gov/data/current_obs/PAUN.xml</xml_url>
	</station>

	<station>
		<station_id>PPIZ</station_id>
		<state>AK</state>
            	<station_name>Point Lay LRRS</station_name>
		<latitude>69.43N</latitude>
		<longitude>163.00W</longitude>
            	<html_url>http://weather.noaa.gov/weather/current/PPIZ.html</html_url>
            	<rss_url>http://weather.gov/data/current_obs/PPIZ.rss</rss_url>
            	<xml_url>http://weather.gov/data/current_obs/PPIZ.xml</xml_url>
	</station>

	<station>
		<station_id>PABE</station_id>
		<state>AK</state>
            	<station_name>Bethel</station_name>
		<latitude>60.46.47N</latitude>
		<longitude>161.50.16W</longitude>
            	<html_url>http://weather.noaa.gov/weather/current/PABE.html</html_url>
            	<rss_url>http://weather.gov/data/current_obs/PABE.rss</rss_url>
            	<xml_url>http://weather.gov/data/current_obs/PABE.xml</xml_url>
	</station>

	<station>
		<station_id>PABI</station_id>
		<state>AK</state>
            	<station_name>Delta Junction/Allan AAF</station_name>
		<latitude>64.00N</latitude>
		<longitude>145.44W</longitude>
            	<html_url>http://weather.noaa.gov/weather/current/PABI.html</html_url>
            	<rss_url>http://weather.gov/data/current_obs/PABI.rss</rss_url>
            	<xml_url>http://weather.gov/data/current_obs/PABI.xml</xml_url>
	</station>

	<station>
		<station_id>PAKW</station_id>
		<state>AK</state>
            	<station_name>Klawock Airport</station_name>
		<latitude>55.35N</latitude>
		<longitude>133.05W</longitude>
            	<html_url>http://weather.noaa.gov/weather/current/PAKW.html</html_url>
            	<rss_url>http://weather.gov/data/current_obs/PAKW.rss</rss_url>
            	<xml_url>http://weather.gov/data/current_obs/PAKW.xml</xml_url>
	</station>

	<station>
		<station_id>PANN</station_id>
		<state>AK</state>
            	<station_name>Annette Island Airport</station_name>
		<latitude>64.33N</latitude>
		<longitude>149.05W</longitude>
            	<html_url>http://weather.noaa.gov/weather/current/PANN.html</html_url>
            	<rss_url>http://weather.gov/data/current_obs/PANN.rss</rss_url>
            	<xml_url>http://weather.gov/data/current_obs/PANN.xml</xml_url>
	</station>

	<station>
		<station_id>PAWI</station_id>
		<state>AK</state>
            	<station_name>Wainwright Airport</station_name>
		<latitude>70.38N</latitude>
		<longitude>159.51W</longitude>
            	<html_url>http://weather.noaa.gov/weather/current/PAWI.html</html_url>
            	<rss_url>http://weather.gov/data/current_obs/PAWI.rss</rss_url>
            	<xml_url>http://weather.gov/data/current_obs/PAWI.xml</xml_url>
	</station>

	<station>
		<station_id>PAAQ</station_id>
		<state>AK</state>
            	<station_name>Palmer</station_name>
		<latitude>61.36N</latitude>
		<longitude>149.05W</longitude>
            	<html_url>http://weather.noaa.gov/weather/current/PAAQ.html</html_url>
            	<rss_url>http://weather.gov/data/current_obs/PAAQ.rss</rss_url>
            	<xml_url>http://weather.gov/data/current_obs/PAAQ.xml</xml_url>
	</station>

	<station>
		<station_id>PABA</station_id>
		<state>AK</state>
            	<station_name>Barter Island</station_name>
		<latitude>70.08.02N</latitude>
		<longitude>143.34.37W</longitude>
            	<html_url>http://weather.noaa.gov/weather/current/PABA.html</html_url>
            	<rss_url>http://weather.gov/data/current_obs/PABA.rss</rss_url>
            	<xml_url>http://weather.gov/data/current_obs/PABA.xml</xml_url>
	</station>

	<station>
		<station_id>PABL</station_id>
		<state>AK</state>
            	<station_name>Buckland Airport</station_name>
		<latitude>65.58.56N</latitude>
		<longitude>161.09.07W</longitude>
            	<html_url>http://weather.noaa.gov/weather/current/PABL.html</html_url>
            	<rss_url>http://weather.gov/data/current_obs/PABL.rss</rss_url>
            	<xml_url>http://weather.gov/data/current_obs/PABL.xml</xml_url>
	</station>

	<station>
		<station_id>PABN</station_id>
		<state>AK</state>
            	<station_name>Nabesna / Devil Mountain</station_name>
		<latitude>62.24N</latitude>
		<longitude>143.00W</longitude>
            	<html_url>http://weather.noaa.gov/weather/current/PABN.html</html_url>
            	<rss_url>http://weather.gov/data/current_obs/PABN.rss</rss_url>
            	<xml_url>http://weather.gov/data/current_obs/PABN.xml</xml_url>
	</station>

	<station>
		<station_id>PABT</station_id>
		<state>AK</state>
            	<station_name>Bettles Airport</station_name>
		<latitude>66.55N</latitude>
		<longitude>151.31W</longitude>
            	<html_url>http://weather.noaa.gov/weather/current/PABT.html</html_url>
            	<rss_url>http://weather.gov/data/current_obs/PABT.rss</rss_url>
            	<xml_url>http://weather.gov/data/current_obs/PABT.xml</xml_url>
	</station>

	<station>
		<station_id>PABV</station_id>
		<state>AK</state>
            	<station_name>Birchwood</station_name>
		<latitude>61.25N</latitude>
		<longitude>149.31W</longitude>
            	<html_url>http://weather.noaa.gov/weather/current/PABV.html</html_url>
            	<rss_url>http://weather.gov/data/current_obs/PABV.rss</rss_url>
            	<xml_url>http://weather.gov/data/current_obs/PABV.xml</xml_url>
	</station>

	<station>
		<station_id>PACD</station_id>
		<state>AK</state>
            	<station_name>Cold Bay Airport</station_name>
		<latitude>55.13.15N</latitude>
		<longitude>162.43.40W</longitude>
            	<html_url>http://weather.noaa.gov/weather/current/PACD.html</html_url>
            	<rss_url>http://weather.gov/data/current_obs/PACD.rss</rss_url>
            	<xml_url>http://weather.gov/data/current_obs/PACD.xml</xml_url>
	</station>

	<station>
		<station_id>PADE</station_id>
		<state>AK</state>
            	<station_name>Deering Airport</station_name>
		<latitude>66.05N</latitude>
		<longitude>162.45W</longitude>
            	<html_url>http://weather.noaa.gov/weather/current/PADE.html</html_url>
            	<rss_url>http://weather.gov/data/current_obs/PADE.rss</rss_url>
            	<xml_url>http://weather.gov/data/current_obs/PADE.xml</xml_url>
	</station>

	<station>
		<station_id>PADL</station_id>
		<state>AK</state>
            	<station_name>Dillingham Municipal, Ak</station_name>
		<latitude>59.03N</latitude>
		<longitude>158.31W</longitude>
            	<html_url>http://weather.noaa.gov/weather/current/PADL.html</html_url>
            	<rss_url>http://weather.gov/data/current_obs/PADL.rss</rss_url>
            	<xml_url>http://weather.gov/data/current_obs/PADL.xml</xml_url>
	</station>

	<station>
		<station_id>PADT</station_id>
		<state>AK</state>
            	<station_name>Slana Airport</station_name>
		<latitude>62.42N</latitude>
		<longitude>143.59W</longitude>
            	<html_url>http://weather.noaa.gov/weather/current/PADT.html</html_url>
            	<rss_url>http://weather.gov/data/current_obs/PADT.rss</rss_url>
            	<xml_url>http://weather.gov/data/current_obs/PADT.xml</xml_url>
	</station>

	<station>
		<station_id>PAEC</station_id>
		<state>AK</state>
            	<station_name>Chulitna</station_name>
		<latitude>62.53N</latitude>
		<longitude>149.50W</longitude>
            	<html_url>http://weather.noaa.gov/weather/current/PAEC.html</html_url>
            	<rss_url>http://weather.gov/data/current_obs/PAEC.rss</rss_url>
            	<xml_url>http://weather.gov/data/current_obs/PAEC.xml</xml_url>
	</station>

	<station>
		<station_id>PAED</station_id>
		<state>AK</state>
            	<station_name>Anchorage / Elmendorf Air Force Base</station_name>
		<latitude>61.15.11N</latitude>
		<longitude>149.47.38W</longitude>
            	<html_url>http://weather.noaa.gov/weather/current/PAED.html</html_url>
            	<rss_url>http://weather.gov/data/current_obs/PAED.rss</rss_url>
            	<xml_url>http://weather.gov/data/current_obs/PAED.xml</xml_url>
	</station>

	<station>
		<station_id>PAEH</station_id>
		<state>AK</state>
            	<station_name>Cape Newenham Airways Facilities Sector</station_name>
		<latitude>58.39N</latitude>
		<longitude>162.04W</longitude>
            	<html_url>http://weather.noaa.gov/weather/current/PAEH.html</html_url>
            	<rss_url>http://weather.gov/data/current_obs/PAEH.rss</rss_url>
            	<xml_url>http://weather.gov/data/current_obs/PAEH.xml</xml_url>
	</station>

	<station>
		<station_id>PAEI</station_id>
		<state>AK</state>
            	<station_name>Fairbanks / Eielson Air Force Base</station_name>
		<latitude>64.39N</latitude>
		<longitude>147.06W</longitude>
            	<html_url>http://weather.noaa.gov/weather/current/PAEI.html</html_url>
            	<rss_url>http://weather.gov/data/current_obs/PAEI.rss</rss_url>
            	<xml_url>http://weather.gov/data/current_obs/PAEI.xml</xml_url>
	</station>

	<station>
		<station_id>PAEM</station_id>
		<state>AK</state>
            	<station_name>Emmonak</station_name>
		<latitude>62.47N</latitude>
		<longitude>164.30W</longitude>
            	<html_url>http://weather.noaa.gov/weather/current/PAEM.html</html_url>
            	<rss_url>http://weather.gov/data/current_obs/PAEM.rss</rss_url>
            	<xml_url>http://weather.gov/data/current_obs/PAEM.xml</xml_url>
	</station>

	<station>
		<station_id>PAEN</station_id>
		<state>AK</state>
            	<station_name>Kenai Municipal Airport</station_name>
		<latitude>60.34.23N</latitude>
		<longitude>151.14.42W</longitude>
            	<html_url>http://weather.noaa.gov/weather/current/PAEN.html</html_url>
            	<rss_url>http://weather.gov/data/current_obs/PAEN.rss</rss_url>
            	<xml_url>http://weather.gov/data/current_obs/PAEN.xml</xml_url>
	</station>

	<station>
		<station_id>PAER</station_id>
		<state>AK</state>
            	<station_name>Merrill Pass West</station_name>
		<latitude>61.15N</latitude>
		<longitude>153.49W</longitude>
            	<html_url>http://weather.noaa.gov/weather/current/PAER.html</html_url>
            	<rss_url>http://weather.gov/data/current_obs/PAER.rss</rss_url>
            	<xml_url>http://weather.gov/data/current_obs/PAER.xml</xml_url>
	</station>

	<station>
		<station_id>PAFA</station_id>
		<state>AK</state>
            	<station_name>Fairbanks International Airport</station_name>
		<latitude>64.48.14N</latitude>
		<longitude>147.52.34W</longitude>
            	<html_url>http://weather.noaa.gov/weather/current/PAFA.html</html_url>
            	<rss_url>http://weather.gov/data/current_obs/PAFA.rss</rss_url>
            	<xml_url>http://weather.gov/data/current_obs/PAFA.xml</xml_url>
	</station>

	<station>
		<station_id>PAFB</station_id>
		<state>AK</state>
            	<station_name>Wainwright U. S. Army Airfield</station_name>
		<latitude>64.50.12N</latitude>
		<longitude>147.35.44W</longitude>
            	<html_url>http://weather.noaa.gov/weather/current/PAFB.html</html_url>
            	<rss_url>http://weather.gov/data/current_obs/PAFB.rss</rss_url>
            	<xml_url>http://weather.gov/data/current_obs/PAFB.xml</xml_url>
	</station>

	<station>
		<station_id>PAFK</station_id>
		<state>AK</state>
            	<station_name>Farewell Lake Seaplane Base</station_name>
		<latitude>62.32.33N</latitude>
		<longitude>153.37.21W</longitude>
            	<html_url>http://weather.noaa.gov/weather/current/PAFK.html</html_url>
            	<rss_url>http://weather.gov/data/current_obs/PAFK.rss</rss_url>
            	<xml_url>http://weather.gov/data/current_obs/PAFK.xml</xml_url>
	</station>

	<station>
		<station_id>PAFM</station_id>
		<state>AK</state>
            	<station_name>Ambler</station_name>
		<latitude>67.06N</latitude>
		<longitude>157.51W</longitude>
            	<html_url>http://weather.noaa.gov/weather/current/PAFM.html</html_url>
            	<rss_url>http://weather.gov/data/current_obs/PAFM.rss</rss_url>
            	<xml_url>http://weather.gov/data/current_obs/PAFM.xml</xml_url>
	</station>

	<station>
		<station_id>PAGA</station_id>
		<state>AK</state>
            	<station_name>Galena A.</station_name>
		<latitude>64.44N</latitude>
		<longitude>156.56W</longitude>
            	<html_url>http://weather.noaa.gov/weather/current/PAGA.html</html_url>
            	<rss_url>http://weather.gov/data/current_obs/PAGA.rss</rss_url>
            	<xml_url>http://weather.gov/data/current_obs/PAGA.xml</xml_url>
	</station>

	<station>
		<station_id>PAGK</station_id>
		<state>AK</state>
            	<station_name>Gulkana Airport</station_name>
		<latitude>62.09N</latitude>
		<longitude>145.27W</longitude>
            	<html_url>http://weather.noaa.gov/weather/current/PAGK.html</html_url>
            	<rss_url>http://weather.gov/data/current_obs/PAGK.rss</rss_url>
            	<xml_url>http://weather.gov/data/current_obs/PAGK.xml</xml_url>
	</station>

	<station>
		<station_id>PAGL</station_id>
		<state>AK</state>
            	<station_name>Golovin Airport</station_name>
		<latitude>64.32.36N</latitude>
		<longitude>163.02.22W</longitude>
            	<html_url>http://weather.noaa.gov/weather/current/PAGL.html</html_url>
            	<rss_url>http://weather.gov/data/current_obs/PAGL.rss</rss_url>
            	<xml_url>http://weather.gov/data/current_obs/PAGL.xml</xml_url>
	</station>

	<station>
		<station_id>PAGY</station_id>
		<state>AK</state>
            	<station_name>Skagway</station_name>
		<latitude>59.28N</latitude>
		<longitude>135.18W</longitude>
            	<html_url>http://weather.noaa.gov/weather/current/PAGY.html</html_url>
            	<rss_url>http://weather.gov/data/current_obs/PAGY.rss</rss_url>
            	<xml_url>http://weather.gov/data/current_obs/PAGY.xml</xml_url>
	</station>

	<station>
		<station_id>PAHO</station_id>
		<state>AK</state>
            	<station_name>Homer</station_name>
		<latitude>59.39N</latitude>
		<longitude>151.29W</longitude>
            	<html_url>http://weather.noaa.gov/weather/current/PAHO.html</html_url>
            	<rss_url>http://weather.gov/data/current_obs/PAHO.rss</rss_url>
            	<xml_url>http://weather.gov/data/current_obs/PAHO.xml</xml_url>
	</station>

	<station>
		<station_id>PAHP</station_id>
		<state>AK</state>
            	<station_name>Hooper Bay Automatic Weather Observing / Reporting</station_name>
		<latitude>61.31N</latitude>
		<longitude>166.08W</longitude>
            	<html_url>http://weather.noaa.gov/weather/current/PAHP.html</html_url>
            	<rss_url>http://weather.gov/data/current_obs/PAHP.rss</rss_url>
            	<xml_url>http://weather.gov/data/current_obs/PAHP.xml</xml_url>
	</station>

	<station>
		<station_id>PAHS</station_id>
		<state>AK</state>
            	<station_name>Huslia</station_name>
		<latitude>65.42N</latitude>
		<longitude>156.23W</longitude>
            	<html_url>http://weather.noaa.gov/weather/current/PAHS.html</html_url>
            	<rss_url>http://weather.gov/data/current_obs/PAHS.rss</rss_url>
            	<xml_url>http://weather.gov/data/current_obs/PAHS.xml</xml_url>
	</station>

	<station>
		<station_id>PAHV</station_id>
		<state>AK</state>
            	<station_name>Healy River Airport</station_name>
		<latitude>63.52N</latitude>
		<longitude>148.58W</longitude>
            	<html_url>http://weather.noaa.gov/weather/current/PAHV.html</html_url>
            	<rss_url>http://weather.gov/data/current_obs/PAHV.rss</rss_url>
            	<xml_url>http://weather.gov/data/current_obs/PAHV.xml</xml_url>
	</station>

	<station>
		<station_id>PAHZ</station_id>
		<state>AK</state>
            	<station_name>Hayes River</station_name>
		<latitude>61.59N</latitude>
		<longitude>152.05W</longitude>
            	<html_url>http://weather.noaa.gov/weather/current/PAHZ.html</html_url>
            	<rss_url>http://weather.gov/data/current_obs/PAHZ.rss</rss_url>
            	<xml_url>http://weather.gov/data/current_obs/PAHZ.xml</xml_url>
	</station>

	<station>
		<station_id>PAII</station_id>
		<state>AK</state>
            	<station_name>Egegik Automatic Weather Observing / Reporting Sys</station_name>
		<latitude>58.11.07N</latitude>
		<longitude>157.23.08W</longitude>
            	<html_url>http://weather.noaa.gov/weather/current/PAII.html</html_url>
            	<rss_url>http://weather.gov/data/current_obs/PAII.rss</rss_url>
            	<xml_url>http://weather.gov/data/current_obs/PAII.xml</xml_url>
	</station>

	<station>
		<station_id>PAIL</station_id>
		<state>AK</state>
            	<station_name>Iliamna / Iliamna Airport</station_name>
		<latitude>59.45N</latitude>
		<longitude>154.54W</longitude>
            	<html_url>http://weather.noaa.gov/weather/current/PAIL.html</html_url>
            	<rss_url>http://weather.gov/data/current_obs/PAIL.rss</rss_url>
            	<xml_url>http://weather.gov/data/current_obs/PAIL.xml</xml_url>
	</station>

	<station>
		<station_id>PAIM</station_id>
		<state>AK</state>
            	<station_name>Indian Mountain Airways Facilities Sector</station_name>
		<latitude>66.59N</latitude>
		<longitude>153.42W</longitude>
            	<html_url>http://weather.noaa.gov/weather/current/PAIM.html</html_url>
            	<rss_url>http://weather.gov/data/current_obs/PAIM.rss</rss_url>
            	<xml_url>http://weather.gov/data/current_obs/PAIM.xml</xml_url>
	</station>

	<station>
		<station_id>PAIN</station_id>
		<state>AK</state>
            	<station_name>McKinley National Park Airport</station_name>
		<latitude>63.44N</latitude>
		<longitude>148.55W</longitude>
            	<html_url>http://weather.noaa.gov/weather/current/PAIN.html</html_url>
            	<rss_url>http://weather.gov/data/current_obs/PAIN.rss</rss_url>
            	<xml_url>http://weather.gov/data/current_obs/PAIN.xml</xml_url>
	</station>

	<station>
		<station_id>PAJC</station_id>
		<state>AK</state>
            	<station_name>Chignik Airport</station_name>
		<latitude>56.18.41N</latitude>
		<longitude>158.22.24W</longitude>
            	<html_url>http://weather.noaa.gov/weather/current/PAJC.html</html_url>
            	<rss_url>http://weather.gov/data/current_obs/PAJC.rss</rss_url>
            	<xml_url>http://weather.gov/data/current_obs/PAJC.xml</xml_url>
	</station>

	<station>
		<station_id>PAJN</station_id>
		<state>AK</state>
            	<station_name>Juneau International Airport</station_name>
		<latitude>58.21.17N</latitude>
		<longitude>134.34.34W</longitude>
            	<html_url>http://weather.noaa.gov/weather/current/PAJN.html</html_url>
            	<rss_url>http://weather.gov/data/current_obs/PAJN.rss</rss_url>
            	<xml_url>http://weather.gov/data/current_obs/PAJN.xml</xml_url>
	</station>

	<station>
		<station_id>PAJV</station_id>
		<state>AK</state>
            	<station_name>Sutton</station_name>
		<latitude>61.43N</latitude>
		<longitude>148.53W</longitude>
            	<html_url>http://weather.noaa.gov/weather/current/PAJV.html</html_url>
            	<rss_url>http://weather.gov/data/current_obs/PAJV.rss</rss_url>
            	<xml_url>http://weather.gov/data/current_obs/PAJV.xml</xml_url>
	</station>

	<station>
		<station_id>PAKK</station_id>
		<state>AK</state>
            	<station_name>Koyuk Airport</station_name>
		<latitude>64.56.02N</latitude>
		<longitude>161.09.29W</longitude>
            	<html_url>http://weather.noaa.gov/weather/current/PAKK.html</html_url>
            	<rss_url>http://weather.gov/data/current_obs/PAKK.rss</rss_url>
            	<xml_url>http://weather.gov/data/current_obs/PAKK.xml</xml_url>
	</station>

	<station>
		<station_id>PAKN</station_id>
		<state>AK</state>
            	<station_name>King Salmon Airport</station_name>
		<latitude>58.40.36N</latitude>
		<longitude>156.38.57W</longitude>
            	<html_url>http://weather.noaa.gov/weather/current/PAKN.html</html_url>
            	<rss_url>http://weather.gov/data/current_obs/PAKN.rss</rss_url>
            	<xml_url>http://weather.gov/data/current_obs/PAKN.xml</xml_url>
	</station>

	<station>
		<station_id>PAKP</station_id>
		<state>AK</state>
            	<station_name>Anaktuvuk Pass</station_name>
		<latitude>68.08.01N</latitude>
		<longitude>151.44.36W</longitude>
            	<html_url>http://weather.noaa.gov/weather/current/PAKP.html</html_url>
            	<rss_url>http://weather.gov/data/current_obs/PAKP.rss</rss_url>
            	<xml_url>http://weather.gov/data/current_obs/PAKP.xml</xml_url>
	</station>

	<station>
		<station_id>PAKT</station_id>
		<state>AK</state>
            	<station_name>Ketchikan International Airport</station_name>
		<latitude>55.21.20N</latitude>
		<longitude>131.42.49W</longitude>
            	<html_url>http://weather.noaa.gov/weather/current/PAKT.html</html_url>
            	<rss_url>http://weather.gov/data/current_obs/PAKT.rss</rss_url>
            	<xml_url>http://weather.gov/data/current_obs/PAKT.xml</xml_url>
	</station>

	<station>
		<station_id>PAKU</station_id>
		<state>AK</state>
            	<station_name>Kuparuk Airport</station_name>
		<latitude>70.19N</latitude>
		<longitude>149.35W</longitude>
            	<html_url>http://weather.noaa.gov/weather/current/PAKU.html</html_url>
            	<rss_url>http://weather.gov/data/current_obs/PAKU.rss</rss_url>
            	<xml_url>http://weather.gov/data/current_obs/PAKU.xml</xml_url>
	</station>

	<station>
		<station_id>PALH</station_id>
		<state>AK</state>
            	<station_name>Lake Hood Seaplane</station_name>
		<latitude>61.11N</latitude>
		<longitude>149.58W</longitude>
            	<html_url>http://weather.noaa.gov/weather/current/PALH.html</html_url>
            	<rss_url>http://weather.gov/data/current_obs/PALH.rss</rss_url>
            	<xml_url>http://weather.gov/data/current_obs/PALH.xml</xml_url>
	</station>

	<station>
		<station_id>PALJ</station_id>
		<state>AK</state>
            	<station_name>Port Alsworth</station_name>
		<latitude>60.12N</latitude>
		<longitude>154.19W</longitude>
            	<html_url>http://weather.noaa.gov/weather/current/PALJ.html</html_url>
            	<rss_url>http://weather.gov/data/current_obs/PALJ.rss</rss_url>
            	<xml_url>http://weather.gov/data/current_obs/PALJ.xml</xml_url>
	</station>

	<station>
		<station_id>PALK</station_id>
		<state>AK</state>
            	<station_name>Snowshoe Lake</station_name>
		<latitude>62.02N</latitude>
		<longitude>142.40W</longitude>
            	<html_url>http://weather.noaa.gov/weather/current/PALK.html</html_url>
            	<rss_url>http://weather.gov/data/current_obs/PALK.rss</rss_url>
            	<xml_url>http://weather.gov/data/current_obs/PALK.xml</xml_url>
	</station>

	<station>
		<station_id>PALR</station_id>
		<state>AK</state>
            	<station_name>Chandalar Lake</station_name>
		<latitude>67.30N</latitude>
		<longitude>148.29W</longitude>
            	<html_url>http://weather.noaa.gov/weather/current/PALR.html</html_url>
            	<rss_url>http://weather.gov/data/current_obs/PALR.rss</rss_url>
            	<xml_url>http://weather.gov/data/current_obs/PALR.xml</xml_url>
	</station>

	<station>
		<station_id>PALV</station_id>
		<state>AK</state>
            	<station_name>Big River Lake</station_name>
		<latitude>60.49N</latitude>
		<longitude>152.18W</longitude>
            	<html_url>http://weather.noaa.gov/weather/current/PALV.html</html_url>
            	<rss_url>http://weather.gov/data/current_obs/PALV.rss</rss_url>
            	<xml_url>http://weather.gov/data/current_obs/PALV.xml</xml_url>
	</station>

	<station>
		<station_id>PAMC</station_id>
		<state>AK</state>
            	<station_name>McGrath Airport</station_name>
		<latitude>62.58N</latitude>
		<longitude>155.37W</longitude>
            	<html_url>http://weather.noaa.gov/weather/current/PAMC.html</html_url>
            	<rss_url>http://weather.gov/data/current_obs/PAMC.rss</rss_url>
            	<xml_url>http://weather.gov/data/current_obs/PAMC.xml</xml_url>
	</station>

	<station>
		<station_id>PAMD</station_id>
		<state>AK</state>
            	<station_name>Middleton Island, Ak</station_name>
		<latitude>59.26N</latitude>
		<longitude>146.18W</longitude>
            	<html_url>http://weather.noaa.gov/weather/current/PAMD.html</html_url>
            	<rss_url>http://weather.gov/data/current_obs/PAMD.rss</rss_url>
            	<xml_url>http://weather.gov/data/current_obs/PAMD.xml</xml_url>
	</station>

	<station>
		<station_id>PAMH</station_id>
		<state>AK</state>
            	<station_name>Minchumina</station_name>
		<latitude>63.52.50N</latitude>
		<longitude>152.18.02W</longitude>
            	<html_url>http://weather.noaa.gov/weather/current/PAMH.html</html_url>
            	<rss_url>http://weather.gov/data/current_obs/PAMH.rss</rss_url>
            	<xml_url>http://weather.gov/data/current_obs/PAMH.xml</xml_url>
	</station>

	<station>
		<station_id>PAMR</station_id>
		<state>AK</state>
            	<station_name>Merrill Field</station_name>
		<latitude>61.13N</latitude>
		<longitude>149.51W</longitude>
            	<html_url>http://weather.noaa.gov/weather/current/PAMR.html</html_url>
            	<rss_url>http://weather.gov/data/current_obs/PAMR.rss</rss_url>
            	<xml_url>http://weather.gov/data/current_obs/PAMR.xml</xml_url>
	</station>

	<station>
		<station_id>PAMY</station_id>
		<state>AK</state>
            	<station_name>Mekoryuk</station_name>
		<latitude>60.22N</latitude>
		<longitude>166.16W</longitude>
            	<html_url>http://weather.noaa.gov/weather/current/PAMY.html</html_url>
            	<rss_url>http://weather.gov/data/current_obs/PAMY.rss</rss_url>
            	<xml_url>http://weather.gov/data/current_obs/PAMY.xml</xml_url>
	</station>

	<station>
		<station_id>PANC</station_id>
		<state>AK</state>
            	<station_name>Anchorage International Airport</station_name>
		<latitude>61.10.28N</latitude>
		<longitude>149.59.46W</longitude>
            	<html_url>http://weather.noaa.gov/weather/current/PANC.html</html_url>
            	<rss_url>http://weather.gov/data/current_obs/PANC.rss</rss_url>
            	<xml_url>http://weather.gov/data/current_obs/PANC.xml</xml_url>
	</station>

	<station>
		<station_id>PANI</station_id>
		<state>AK</state>
            	<station_name>Aniak</station_name>
		<latitude>61.34.53N</latitude>
		<longitude>159.32.34W</longitude>
            	<html_url>http://weather.noaa.gov/weather/current/PANI.html</html_url>
            	<rss_url>http://weather.gov/data/current_obs/PANI.rss</rss_url>
            	<xml_url>http://weather.gov/data/current_obs/PANI.xml</xml_url>
	</station>

	<station>
		<station_id>PANT</station_id>
		<state>AK</state>
            	<station_name>Annette Island</station_name>
		<latitude>55.02.32N</latitude>
		<longitude>131.34.20W</longitude>
            	<html_url>http://weather.noaa.gov/weather/current/PANT.html</html_url>
            	<rss_url>http://weather.gov/data/current_obs/PANT.rss</rss_url>
            	<xml_url>http://weather.gov/data/current_obs/PANT.xml</xml_url>
	</station>

	<station>
		<station_id>PANV</station_id>
		<state>AK</state>
            	<station_name>Annik Airport</station_name>
		<latitude>62.38.54N</latitude>
		<longitude>160.11.23W</longitude>
            	<html_url>http://weather.noaa.gov/weather/current/PANV.html</html_url>
            	<rss_url>http://weather.gov/data/current_obs/PANV.rss</rss_url>
            	<xml_url>http://weather.gov/data/current_obs/PANV.xml</xml_url>
	</station>

	<station>
		<station_id>PAOM</station_id>
		<state>AK</state>
            	<station_name>Nome Airport</station_name>
		<latitude>64.30.43N</latitude>
		<longitude>165.26.42W</longitude>
            	<html_url>http://weather.noaa.gov/weather/current/PAOM.html</html_url>
            	<rss_url>http://weather.gov/data/current_obs/PAOM.rss</rss_url>
            	<xml_url>http://weather.gov/data/current_obs/PAOM.xml</xml_url>
	</station>

	<station>
		<station_id>PAOR</station_id>
		<state>AK</state>
            	<station_name>Northway Airport</station_name>
		<latitude>62.57.40N</latitude>
		<longitude>141.55.44W</longitude>
            	<html_url>http://weather.noaa.gov/weather/current/PAOR.html</html_url>
            	<rss_url>http://weather.gov/data/current_obs/PAOR.rss</rss_url>
            	<xml_url>http://weather.gov/data/current_obs/PAOR.xml</xml_url>
	</station>

	<station>
		<station_id>PAOT</station_id>
		<state>AK</state>
            	<station_name>Kotzebue, Wien Memorial Airport</station_name>
		<latitude>66.53.04N</latitude>
		<longitude>162.35.54W</longitude>
            	<html_url>http://weather.noaa.gov/weather/current/PAOT.html</html_url>
            	<rss_url>http://weather.gov/data/current_obs/PAOT.rss</rss_url>
            	<xml_url>http://weather.gov/data/current_obs/PAOT.xml</xml_url>
	</station>

	<station>
		<station_id>PAPB</station_id>
		<state>AK</state>
            	<station_name>St. George Airport</station_name>
		<latitude>56.34.43N</latitude>
		<longitude>169.39.41W</longitude>
            	<html_url>http://weather.noaa.gov/weather/current/PAPB.html</html_url>
            	<rss_url>http://weather.gov/data/current_obs/PAPB.rss</rss_url>
            	<xml_url>http://weather.gov/data/current_obs/PAPB.xml</xml_url>
	</station>

	<station>
		<station_id>PAPH</station_id>
		<state>AK</state>
            	<station_name>Port Heiden</station_name>
		<latitude>56.57N</latitude>
		<longitude>158.38W</longitude>
            	<html_url>http://weather.noaa.gov/weather/current/PAPH.html</html_url>
            	<rss_url>http://weather.gov/data/current_obs/PAPH.rss</rss_url>
            	<xml_url>http://weather.gov/data/current_obs/PAPH.xml</xml_url>
	</station>

	<station>
		<station_id>PAPO</station_id>
		<state>AK</state>
            	<station_name>Point Hope Automatic Weather Observing / Reporting</station_name>
		<latitude>68.21N</latitude>
		<longitude>166.48W</longitude>
            	<html_url>http://weather.noaa.gov/weather/current/PAPO.html</html_url>
            	<rss_url>http://weather.gov/data/current_obs/PAPO.rss</rss_url>
            	<xml_url>http://weather.gov/data/current_obs/PAPO.xml</xml_url>
	</station>

	<station>
		<station_id>PAPT</station_id>
		<state>AK</state>
            	<station_name>Puntilla</station_name>
		<latitude>62.06N</latitude>
		<longitude>152.45W</longitude>
            	<html_url>http://weather.noaa.gov/weather/current/PAPT.html</html_url>
            	<rss_url>http://weather.gov/data/current_obs/PAPT.rss</rss_url>
            	<xml_url>http://weather.gov/data/current_obs/PAPT.xml</xml_url>
	</station>

	<station>
		<station_id>PAQT</station_id>
		<state>AK</state>
            	<station_name>Nuiqsut Airport</station_name>
		<latitude>70.12.36N</latitude>
		<longitude>151.00.20W</longitude>
            	<html_url>http://weather.noaa.gov/weather/current/PAQT.html</html_url>
            	<rss_url>http://weather.gov/data/current_obs/PAQT.rss</rss_url>
            	<xml_url>http://weather.gov/data/current_obs/PAQT.xml</xml_url>
	</station>

	<station>
		<station_id>PARC</station_id>
		<state>AK</state>
            	<station_name>Arctic Village</station_name>
		<latitude>68.06.52N</latitude>
		<longitude>145.34.45W</longitude>
            	<html_url>http://weather.noaa.gov/weather/current/PARC.html</html_url>
            	<rss_url>http://weather.gov/data/current_obs/PARC.rss</rss_url>
            	<xml_url>http://weather.gov/data/current_obs/PARC.xml</xml_url>
	</station>

	<station>
		<station_id>PARD</station_id>
		<state>AK</state>
            	<station_name>Red Dog Airport</station_name>
		<latitude>68.01.53N</latitude>
		<longitude>162.54.11W</longitude>
            	<html_url>http://weather.noaa.gov/weather/current/PARD.html</html_url>
            	<rss_url>http://weather.gov/data/current_obs/PARD.rss</rss_url>
            	<xml_url>http://weather.gov/data/current_obs/PARD.xml</xml_url>
	</station>

	<station>
		<station_id>PASA</station_id>
		<state>AK</state>
            	<station_name>Savoonga Airport</station_name>
		<latitude>63.41N</latitude>
		<longitude>170.30W</longitude>
            	<html_url>http://weather.noaa.gov/weather/current/PASA.html</html_url>
            	<rss_url>http://weather.gov/data/current_obs/PASA.rss</rss_url>
            	<xml_url>http://weather.gov/data/current_obs/PASA.xml</xml_url>
	</station>

	<station>
		<station_id>PASC</station_id>
		<state>AK</state>
            	<station_name>Deadhorse Airport</station_name>
		<latitude>70.12N</latitude>
		<longitude>148.28W</longitude>
            	<html_url>http://weather.noaa.gov/weather/current/PASC.html</html_url>
            	<rss_url>http://weather.gov/data/current_obs/PASC.rss</rss_url>
            	<xml_url>http://weather.gov/data/current_obs/PASC.xml</xml_url>
	</station>

	<station>
		<station_id>PASK</station_id>
		<state>AK</state>
            	<station_name>Selawik</station_name>
		<latitude>66.37N</latitude>
		<longitude>160.00W</longitude>
            	<html_url>http://weather.noaa.gov/weather/current/PASK.html</html_url>
            	<rss_url>http://weather.gov/data/current_obs/PASK.rss</rss_url>
            	<xml_url>http://weather.gov/data/current_obs/PASK.xml</xml_url>
	</station>

	<station>
		<station_id>PASP</station_id>
		<state>AK</state>
            	<station_name>Sheep Mountain Airport</station_name>
		<latitude>61.48.43N</latitude>
		<longitude>147.30.25W</longitude>
            	<html_url>http://weather.noaa.gov/weather/current/PASP.html</html_url>
            	<rss_url>http://weather.gov/data/current_obs/PASP.rss</rss_url>
            	<xml_url>http://weather.gov/data/current_obs/PASP.xml</xml_url>
	</station>

	<station>
		<station_id>PASW</station_id>
		<state>AK</state>
            	<station_name>Skwentna</station_name>
		<latitude>61.58N</latitude>
		<longitude>151.11W</longitude>
            	<html_url>http://weather.noaa.gov/weather/current/PASW.html</html_url>
            	<rss_url>http://weather.gov/data/current_obs/PASW.rss</rss_url>
            	<xml_url>http://weather.gov/data/current_obs/PASW.xml</xml_url>
	</station>

	<station>
		<station_id>PATA</station_id>
		<state>AK</state>
            	<station_name>Tanana, Calhoun Memorial Airport</station_name>
		<latitude>65.10N</latitude>
		<longitude>152.06W</longitude>
            	<html_url>http://weather.noaa.gov/weather/current/PATA.html</html_url>
            	<rss_url>http://weather.gov/data/current_obs/PATA.rss</rss_url>
            	<xml_url>http://weather.gov/data/current_obs/PATA.xml</xml_url>
	</station>

	<station>
		<station_id>PATC</station_id>
		<state>AK</state>
            	<station_name>Tin City Airways Facilities Sector</station_name>
		<latitude>65.34N</latitude>
		<longitude>167.55W</longitude>
            	<html_url>http://weather.noaa.gov/weather/current/PATC.html</html_url>
            	<rss_url>http://weather.gov/data/current_obs/PATC.rss</rss_url>
            	<xml_url>http://weather.gov/data/current_obs/PATC.xml</xml_url>
	</station>

	<station>
		<station_id>PATK</station_id>
		<state>AK</state>
            	<station_name>Talkeetna</station_name>
		<latitude>62.19.14N</latitude>
		<longitude>150.05.37W</longitude>
            	<html_url>http://weather.noaa.gov/weather/current/PATK.html</html_url>
            	<rss_url>http://weather.gov/data/current_obs/PATK.rss</rss_url>
            	<xml_url>http://weather.gov/data/current_obs/PATK.xml</xml_url>
	</station>

	<station>
		<station_id>PAVD</station_id>
		<state>AK</state>
            	<station_name>Valdez 2</station_name>
		<latitude>61.08N</latitude>
		<longitude>146.16W</longitude>
            	<html_url>http://weather.noaa.gov/weather/current/PAVD.html</html_url>
            	<rss_url>http://weather.gov/data/current_obs/PAVD.rss</rss_url>
            	<xml_url>http://weather.gov/data/current_obs/PAVD.xml</xml_url>
	</station>

	<station>
		<station_id>PAVW</station_id>
		<state>AK</state>
            	<station_name>Valdez Weather Station Office</station_name>
		<latitude>61.08N</latitude>
		<longitude>146.21W</longitude>
            	<html_url>http://weather.noaa.gov/weather/current/PAVW.html</html_url>
            	<rss_url>http://weather.gov/data/current_obs/PAVW.rss</rss_url>
            	<xml_url>http://weather.gov/data/current_obs/PAVW.xml</xml_url>
	</station>

	<station>
		<station_id>PAWN</station_id>
		<state>AK</state>
            	<station_name>Noatak</station_name>
		<latitude>67.34N</latitude>
		<longitude>162.59W</longitude>
            	<html_url>http://weather.noaa.gov/weather/current/PAWN.html</html_url>
            	<rss_url>http://weather.gov/data/current_obs/PAWN.rss</rss_url>
            	<xml_url>http://weather.gov/data/current_obs/PAWN.xml</xml_url>
	</station>

	<station>
		<station_id>PAWR</station_id>
		<state>AK</state>
            	<station_name>Whittier</station_name>
		<latitude>60.46N</latitude>
		<longitude>148.41W</longitude>
            	<html_url>http://weather.noaa.gov/weather/current/PAWR.html</html_url>
            	<rss_url>http://weather.gov/data/current_obs/PAWR.rss</rss_url>
            	<xml_url>http://weather.gov/data/current_obs/PAWR.xml</xml_url>
	</station>

	<station>
		<station_id>PAWS</station_id>
		<state>AK</state>
            	<station_name>Wasilla Airport</station_name>
		<latitude>61.34.19N</latitude>
		<longitude>149.32.26W</longitude>
            	<html_url>http://weather.noaa.gov/weather/current/PAWS.html</html_url>
            	<rss_url>http://weather.gov/data/current_obs/PAWS.rss</rss_url>
            	<xml_url>http://weather.gov/data/current_obs/PAWS.xml</xml_url>
	</station>

	<station>
		<station_id>PAYA</station_id>
		<state>AK</state>
            	<station_name>Yakutat</station_name>
		<latitude>59.31N</latitude>
		<longitude>139.40W</longitude>
            	<html_url>http://weather.noaa.gov/weather/current/PAYA.html</html_url>
            	<rss_url>http://weather.gov/data/current_obs/PAYA.rss</rss_url>
            	<xml_url>http://weather.gov/data/current_obs/PAYA.xml</xml_url>
	</station>

	<station>
		<station_id>PAZK</station_id>
		<state>AK</state>
            	<station_name>Eureka</station_name>
		<latitude>61.56N</latitude>
		<longitude>147.10W</longitude>
            	<html_url>http://weather.noaa.gov/weather/current/PAZK.html</html_url>
            	<rss_url>http://weather.gov/data/current_obs/PAZK.rss</rss_url>
            	<xml_url>http://weather.gov/data/current_obs/PAZK.xml</xml_url>
	</station>

	<station>
		<station_id>PFYU</station_id>
		<state>AK</state>
            	<station_name>Fort Yukon</station_name>
		<latitude>66.34N</latitude>
		<longitude>145.16W</longitude>
            	<html_url>http://weather.noaa.gov/weather/current/PFYU.html</html_url>
            	<rss_url>http://weather.gov/data/current_obs/PFYU.rss</rss_url>
            	<xml_url>http://weather.gov/data/current_obs/PFYU.xml</xml_url>
	</station>

	<station>
		<station_id>PACZ</station_id>
		<state>AK</state>
            	<station_name>Cape Romanzoff Airways Facilities Sector</station_name>
		<latitude>61.47N</latitude>
		<longitude>166.02W</longitude>
            	<html_url>http://weather.noaa.gov/weather/current/PACZ.html</html_url>
            	<rss_url>http://weather.gov/data/current_obs/PACZ.rss</rss_url>
            	<xml_url>http://weather.gov/data/current_obs/PACZ.xml</xml_url>
	</station>

	<station>
		<station_id>PAGB</station_id>
		<state>AK</state>
            	<station_name>Galbraith Lake</station_name>
		<latitude>68.29N</latitude>
		<longitude>149.29W</longitude>
            	<html_url>http://weather.noaa.gov/weather/current/PAGB.html</html_url>
            	<rss_url>http://weather.gov/data/current_obs/PAGB.rss</rss_url>
            	<xml_url>http://weather.gov/data/current_obs/PAGB.xml</xml_url>
	</station>

	<station>
		<station_id>PAKV</station_id>
		<state>AK</state>
            	<station_name>Kaltag Airport</station_name>
		<latitude>64.19N</latitude>
		<longitude>158.44W</longitude>
            	<html_url>http://weather.noaa.gov/weather/current/PAKV.html</html_url>
            	<rss_url>http://weather.gov/data/current_obs/PAKV.rss</rss_url>
            	<xml_url>http://weather.gov/data/current_obs/PAKV.xml</xml_url>
	</station>

	<station>
		<station_id>PASL</station_id>
		<state>AK</state>
            	<station_name>Sleetmute</station_name>
		<latitude>61.43N</latitude>
		<longitude>157.09W</longitude>
            	<html_url>http://weather.noaa.gov/weather/current/PASL.html</html_url>
            	<rss_url>http://weather.gov/data/current_obs/PASL.rss</rss_url>
            	<xml_url>http://weather.gov/data/current_obs/PASL.xml</xml_url>
	</station>

	<station>
		<station_id>PASV</station_id>
		<state>AK</state>
            	<station_name>Sparrevohn</station_name>
		<latitude>61.06N</latitude>
		<longitude>155.34W</longitude>
            	<html_url>http://weather.noaa.gov/weather/current/PASV.html</html_url>
            	<rss_url>http://weather.gov/data/current_obs/PASV.rss</rss_url>
            	<xml_url>http://weather.gov/data/current_obs/PASV.xml</xml_url>
	</station>

	<station>
		<station_id>PAAK</station_id>
		<state>AK</state>
            	<station_name>Atka Airport</station_name>
		<latitude>52.13.13N</latitude>
		<longitude>174.12.23W</longitude>
            	<html_url>http://weather.noaa.gov/weather/current/PAAK.html</html_url>
            	<rss_url>http://weather.gov/data/current_obs/PAAK.rss</rss_url>
            	<xml_url>http://weather.gov/data/current_obs/PAAK.xml</xml_url>
	</station>

	<station>
		<station_id>PASX</station_id>
		<state>AK</state>
            	<station_name>Soldotna</station_name>
		<latitude>60.29N</latitude>
		<longitude>151.02W</longitude>
            	<html_url>http://weather.noaa.gov/weather/current/PASX.html</html_url>
            	<rss_url>http://weather.gov/data/current_obs/PASX.rss</rss_url>
            	<xml_url>http://weather.gov/data/current_obs/PASX.xml</xml_url>
	</station>

	<station>
		<station_id>PAAP</station_id>
		<state>AK</state>
            	<station_name>Port Alexander</station_name>
		<latitude>56.15N</latitude>
		<longitude>134.39W</longitude>
            	<html_url>http://weather.noaa.gov/weather/current/PAAP.html</html_url>
            	<rss_url>http://weather.gov/data/current_obs/PAAP.rss</rss_url>
            	<xml_url>http://weather.gov/data/current_obs/PAAP.xml</xml_url>
	</station>

	<station>
		<station_id>PAEG</station_id>
		<state>AK</state>
            	<station_name>Eagle Airport</station_name>
		<latitude>64.46.35N</latitude>
		<longitude>141.09.03W</longitude>
            	<html_url>http://weather.noaa.gov/weather/current/PAEG.html</html_url>
            	<rss_url>http://weather.gov/data/current_obs/PAEG.rss</rss_url>
            	<xml_url>http://weather.gov/data/current_obs/PAEG.xml</xml_url>
	</station>

	<station>
		<station_id>PAEL</station_id>
		<state>AK</state>
            	<station_name>Elfin Cove Seaplane</station_name>
		<latitude>58.12N</latitude>
		<longitude>136.21W</longitude>
            	<html_url>http://weather.noaa.gov/weather/current/PAEL.html</html_url>
            	<rss_url>http://weather.gov/data/current_obs/PAEL.rss</rss_url>
            	<xml_url>http://weather.gov/data/current_obs/PAEL.xml</xml_url>
	</station>

	<station>
		<station_id>PAGS</station_id>
		<state>AK</state>
            	<station_name>Gustavus</station_name>
		<latitude>58.25N</latitude>
		<longitude>135.42W</longitude>
            	<html_url>http://weather.noaa.gov/weather/current/PAGS.html</html_url>
            	<rss_url>http://weather.gov/data/current_obs/PAGS.rss</rss_url>
            	<xml_url>http://weather.gov/data/current_obs/PAGS.xml</xml_url>
	</station>

	<station>
		<station_id>PAHN</station_id>
		<state>AK</state>
            	<station_name>Haines Airport</station_name>
		<latitude>59.15N</latitude>
		<longitude>135.31W</longitude>
            	<html_url>http://weather.noaa.gov/weather/current/PAHN.html</html_url>
            	<rss_url>http://weather.gov/data/current_obs/PAHN.rss</rss_url>
            	<xml_url>http://weather.gov/data/current_obs/PAHN.xml</xml_url>
	</station>

	<station>
		<station_id>PAMX</station_id>
		<state>AK</state>
            	<station_name>McCarthy</station_name>
		<latitude>61.26N</latitude>
		<longitude>142.56W</longitude>
            	<html_url>http://weather.noaa.gov/weather/current/PAMX.html</html_url>
            	<rss_url>http://weather.gov/data/current_obs/PAMX.rss</rss_url>
            	<xml_url>http://weather.gov/data/current_obs/PAMX.xml</xml_url>
	</station>

	<station>
		<station_id>PAOH</station_id>
		<state>AK</state>
            	<station_name>Hoonah Seaplane</station_name>
		<latitude>58.07N</latitude>
		<longitude>135.27W</longitude>
            	<html_url>http://weather.noaa.gov/weather/current/PAOH.html</html_url>
            	<rss_url>http://weather.gov/data/current_obs/PAOH.rss</rss_url>
            	<xml_url>http://weather.gov/data/current_obs/PAOH.xml</xml_url>
	</station>

	<station>
		<station_id>PAPG</station_id>
		<state>AK</state>
            	<station_name>Petersburg</station_name>
		<latitude>56.49N</latitude>
		<longitude>132.58W</longitude>
            	<html_url>http://weather.noaa.gov/weather/current/PAPG.html</html_url>
            	<rss_url>http://weather.gov/data/current_obs/PAPG.rss</rss_url>
            	<xml_url>http://weather.gov/data/current_obs/PAPG.xml</xml_url>
	</station>

	<station>
		<station_id>PAPR</station_id>
		<state>AK</state>
            	<station_name>Prospect Creek Airport</station_name>
		<latitude>66.48.46N</latitude>
		<longitude>150.38.38W</longitude>
            	<html_url>http://weather.noaa.gov/weather/current/PAPR.html</html_url>
            	<rss_url>http://weather.gov/data/current_obs/PAPR.rss</rss_url>
            	<xml_url>http://weather.gov/data/current_obs/PAPR.xml</xml_url>
	</station>

	<station>
		<station_id>PARL</station_id>
		<state>AK</state>
            	<station_name>Central Airport</station_name>
		<latitude>65.34.26N</latitude>
		<longitude>144.46.59W</longitude>
            	<html_url>http://weather.noaa.gov/weather/current/PARL.html</html_url>
            	<rss_url>http://weather.gov/data/current_obs/PARL.rss</rss_url>
            	<xml_url>http://weather.gov/data/current_obs/PARL.xml</xml_url>
	</station>

	<station>
		<station_id>PASD</station_id>
		<state>AK</state>
            	<station_name>Sand Point</station_name>
		<latitude>55.19N</latitude>
		<longitude>160.31W</longitude>
            	<html_url>http://weather.noaa.gov/weather/current/PASD.html</html_url>
            	<rss_url>http://weather.gov/data/current_obs/PASD.rss</rss_url>
            	<xml_url>http://weather.gov/data/current_obs/PASD.xml</xml_url>
	</station>

	<station>
		<station_id>PASH</station_id>
		<state>AK</state>
            	<station_name>Shishmaref Automatic Wx Obs</station_name>
		<latitude>66.16N</latitude>
		<longitude>166.05W</longitude>
            	<html_url>http://weather.noaa.gov/weather/current/PASH.html</html_url>
            	<rss_url>http://weather.gov/data/current_obs/PASH.rss</rss_url>
            	<xml_url>http://weather.gov/data/current_obs/PASH.xml</xml_url>
	</station>

	<station>
		<station_id>PATW</station_id>
		<state>AK</state>
            	<station_name>Cantwell</station_name>
		<latitude>63.24N</latitude>
		<longitude>148.57W</longitude>
            	<html_url>http://weather.noaa.gov/weather/current/PATW.html</html_url>
            	<rss_url>http://weather.gov/data/current_obs/PATW.rss</rss_url>
            	<xml_url>http://weather.gov/data/current_obs/PATW.xml</xml_url>
	</station>

	<station>
		<station_id>PAUO</station_id>
		<state>AK</state>
            	<station_name>Willow Airport</station_name>
		<latitude>61.45N</latitude>
		<longitude>150.03W</longitude>
            	<html_url>http://weather.noaa.gov/weather/current/PAUO.html</html_url>
            	<rss_url>http://weather.gov/data/current_obs/PAUO.rss</rss_url>
            	<xml_url>http://weather.gov/data/current_obs/PAUO.xml</xml_url>
	</station>

	<station>
		<station_id>PAVL</station_id>
		<state>AK</state>
            	<station_name>Kivalina Airport</station_name>
		<latitude>67.44N</latitude>
		<longitude>164.33W</longitude>
            	<html_url>http://weather.noaa.gov/weather/current/PAVL.html</html_url>
            	<rss_url>http://weather.gov/data/current_obs/PAVL.rss</rss_url>
            	<xml_url>http://weather.gov/data/current_obs/PAVL.xml</xml_url>
	</station>

	<station>
		<station_id>PAWG</station_id>
		<state>AK</state>
            	<station_name>Wrangell</station_name>
		<latitude>56.29N</latitude>
		<longitude>132.22W</longitude>
            	<html_url>http://weather.noaa.gov/weather/current/PAWG.html</html_url>
            	<rss_url>http://weather.gov/data/current_obs/PAWG.rss</rss_url>
            	<xml_url>http://weather.gov/data/current_obs/PAWG.xml</xml_url>
	</station>

	<station>
		<station_id>PAXK</station_id>
		<state>AK</state>
            	<station_name>Paxson</station_name>
		<latitude>63.02N</latitude>
		<longitude>145.30W</longitude>
            	<html_url>http://weather.noaa.gov/weather/current/PAXK.html</html_url>
            	<rss_url>http://weather.gov/data/current_obs/PAXK.rss</rss_url>
            	<xml_url>http://weather.gov/data/current_obs/PAXK.xml</xml_url>
	</station>

	<station>
		<station_id>PALU</station_id>
		<state>AK</state>
            	<station_name>Cape Lisburne Airways Fac Sec</station_name>
		<latitude>68.53N</latitude>
		<longitude>166.06W</longitude>
            	<html_url>http://weather.noaa.gov/weather/current/PALU.html</html_url>
            	<rss_url>http://weather.gov/data/current_obs/PALU.rss</rss_url>
            	<xml_url>http://weather.gov/data/current_obs/PALU.xml</xml_url>
	</station>

	<station>
		<station_id>PAMM</station_id>
		<state>AK</state>
            	<station_name>Metlakatla Seaplane Base</station_name>
		<latitude>55.07.52N</latitude>
		<longitude>131.34.41W</longitude>
            	<html_url>http://weather.noaa.gov/weather/current/PAMM.html</html_url>
            	<rss_url>http://weather.gov/data/current_obs/PAMM.rss</rss_url>
            	<xml_url>http://weather.gov/data/current_obs/PAMM.xml</xml_url>
	</station>

	<station>
		<station_id>PAML</station_id>
		<state>AK</state>
            	<station_name>Manley Hot Springs</station_name>
		<latitude>64.59N</latitude>
		<longitude>150.38W</longitude>
            	<html_url>http://weather.noaa.gov/weather/current/PAML.html</html_url>
            	<rss_url>http://weather.gov/data/current_obs/PAML.rss</rss_url>
            	<xml_url>http://weather.gov/data/current_obs/PAML.xml</xml_url>
	</station>

	<station>
		<station_id>KANB</station_id>
		<state>AL</state>
            	<station_name>Anniston Metropolitan Airport</station_name>
		<latitude>33.35.26N</latitude>
		<longitude>085.50.51W</longitude>
            	<html_url>http://weather.noaa.gov/weather/current/KANB.html</html_url>
            	<rss_url>http://weather.gov/data/current_obs/KANB.rss</rss_url>
            	<xml_url>http://weather.gov/data/current_obs/KANB.xml</xml_url>
	</station>

	<station>
		<station_id>KAUO</station_id>
		<state>AL</state>
            	<station_name>Auburn-Opelika Airport</station_name>
		<latitude>32.37N</latitude>
		<longitude>085.26W</longitude>
            	<html_url>http://weather.noaa.gov/weather/current/KAUO.html</html_url>
            	<rss_url>http://weather.gov/data/current_obs/KAUO.rss</rss_url>
            	<xml_url>http://weather.gov/data/current_obs/KAUO.xml</xml_url>
	</station>

	<station>
		<station_id>KBHM</station_id>
		<state>AL</state>
            	<station_name>Birmingham International Airport</station_name>
		<latitude>33.33.56N</latitude>
		<longitude>086.44.42W</longitude>
            	<html_url>http://weather.noaa.gov/weather/current/KBHM.html</html_url>
            	<rss_url>http://weather.gov/data/current_obs/KBHM.rss</rss_url>
            	<xml_url>http://weather.gov/data/current_obs/KBHM.xml</xml_url>
	</station>

	<station>
		<station_id>KDCU</station_id>
		<state>AL</state>
            	<station_name>Decatur, Pryor Field</station_name>
		<latitude>34.39.29N</latitude>
		<longitude>086.56.36W</longitude>
            	<html_url>http://weather.noaa.gov/weather/current/KDCU.html</html_url>
            	<rss_url>http://weather.gov/data/current_obs/KDCU.rss</rss_url>
            	<xml_url>http://weather.gov/data/current_obs/KDCU.xml</xml_url>
	</station>

	<station>
		<station_id>KDHN</station_id>
		<state>AL</state>
            	<station_name>Dothan Airport</station_name>
		<latitude>31.19.17N</latitude>
		<longitude>085.26.59W</longitude>
            	<html_url>http://weather.noaa.gov/weather/current/KDHN.html</html_url>
            	<rss_url>http://weather.gov/data/current_obs/KDHN.rss</rss_url>
            	<xml_url>http://weather.gov/data/current_obs/KDHN.xml</xml_url>
	</station>

	<station>
		<station_id>KEET</station_id>
		<state>AL</state>
            	<station_name>Calera, Shelby County Airport</station_name>
		<latitude>33.10.42N</latitude>
		<longitude>086.46.54W</longitude>
            	<html_url>http://weather.noaa.gov/weather/current/KEET.html</html_url>
            	<rss_url>http://weather.gov/data/current_obs/KEET.rss</rss_url>
            	<xml_url>http://weather.gov/data/current_obs/KEET.xml</xml_url>
	</station>

	<station>
		<station_id>KGAD</station_id>
		<state>AL</state>
            	<station_name>Gadsden Municipal Automatic Weather Observing</station_name>
		<latitude>33.58N</latitude>
		<longitude>086.05W</longitude>
            	<html_url>http://weather.noaa.gov/weather/current/KGAD.html</html_url>
            	<rss_url>http://weather.gov/data/current_obs/KGAD.rss</rss_url>
            	<xml_url>http://weather.gov/data/current_obs/KGAD.xml</xml_url>
	</station>

	<station>
		<station_id>KGZH</station_id>
		<state>AL</state>
            	<station_name>Evergreen, Middleton Field</station_name>
		<latitude>31.25.08N</latitude>
		<longitude>087.02.53W</longitude>
            	<html_url>http://weather.noaa.gov/weather/current/KGZH.html</html_url>
            	<rss_url>http://weather.gov/data/current_obs/KGZH.rss</rss_url>
            	<xml_url>http://weather.gov/data/current_obs/KGZH.xml</xml_url>
	</station>

	<station>
		<station_id>KHSV</station_id>
		<state>AL</state>
            	<station_name>Huntsville International / Jones Field</station_name>
		<latitude>34.38.37N</latitude>
		<longitude>086.47.08W</longitude>
            	<html_url>http://weather.noaa.gov/weather/current/KHSV.html</html_url>
            	<rss_url>http://weather.gov/data/current_obs/KHSV.rss</rss_url>
            	<xml_url>http://weather.gov/data/current_obs/KHSV.xml</xml_url>
	</station>

	<station>
		<station_id>KMGM</station_id>
		<state>AL</state>
            	<station_name>Montgomery, Dannelly Field</station_name>
		<latitude>32.18.01N</latitude>
		<longitude>086.24.22W</longitude>
            	<html_url>http://weather.noaa.gov/weather/current/KMGM.html</html_url>
            	<rss_url>http://weather.gov/data/current_obs/KMGM.rss</rss_url>
            	<xml_url>http://weather.gov/data/current_obs/KMGM.xml</xml_url>
	</station>

	<station>
		<station_id>KMOB</station_id>
		<state>AL</state>
            	<station_name>Mobile Regional Airport</station_name>
		<latitude>30.41.18N</latitude>
		<longitude>088.14.44W</longitude>
            	<html_url>http://weather.noaa.gov/weather/current/KMOB.html</html_url>
            	<rss_url>http://weather.gov/data/current_obs/KMOB.rss</rss_url>
            	<xml_url>http://weather.gov/data/current_obs/KMOB.xml</xml_url>
	</station>

	<station>
		<station_id>KMSL</station_id>
		<state>AL</state>
            	<station_name>Muscle Shoals, North West Alabama Regional Airport</station_name>
		<latitude>34.44.38N</latitude>
		<longitude>087.35.58W</longitude>
            	<html_url>http://weather.noaa.gov/weather/current/KMSL.html</html_url>
            	<rss_url>http://weather.gov/data/current_obs/KMSL.rss</rss_url>
            	<xml_url>http://weather.gov/data/current_obs/KMSL.xml</xml_url>
	</station>

	<station>
		<station_id>KMXF</station_id>
		<state>AL</state>
            	<station_name>Maxwell Air Force Base / Montgomery</station_name>
		<latitude>32.23N</latitude>
		<longitude>086.22W</longitude>
            	<html_url>http://weather.noaa.gov/weather/current/KMXF.html</html_url>
            	<rss_url>http://weather.gov/data/current_obs/KMXF.rss</rss_url>
            	<xml_url>http://weather.gov/data/current_obs/KMXF.xml</xml_url>
	</station>

	<station>
		<station_id>KOZR</station_id>
		<state>AL</state>
            	<station_name>Cairns Army Air Field / Ozark</station_name>
		<latitude>31.17N</latitude>
		<longitude>085.43W</longitude>
            	<html_url>http://weather.noaa.gov/weather/current/KOZR.html</html_url>
            	<rss_url>http://weather.gov/data/current_obs/KOZR.rss</rss_url>
            	<xml_url>http://weather.gov/data/current_obs/KOZR.xml</xml_url>
	</station>

	<station>
		<station_id>KTCL</station_id>
		<state>AL</state>
            	<station_name>Tuscaloosa Municipal Airport</station_name>
		<latitude>33.13.14N</latitude>
		<longitude>087.36.41W</longitude>
            	<html_url>http://weather.noaa.gov/weather/current/KTCL.html</html_url>
            	<rss_url>http://weather.gov/data/current_obs/KTCL.rss</rss_url>
            	<xml_url>http://weather.gov/data/current_obs/KTCL.xml</xml_url>
	</station>

	<station>
		<station_id>KTOI</station_id>
		<state>AL</state>
            	<station_name>Troy Municipal Airport</station_name>
		<latitude>31.51.38N</latitude>
		<longitude>086.00.44W</longitude>
            	<html_url>http://weather.noaa.gov/weather/current/KTOI.html</html_url>
            	<rss_url>http://weather.gov/data/current_obs/KTOI.rss</rss_url>
            	<xml_url>http://weather.gov/data/current_obs/KTOI.xml</xml_url>
	</station>

	<station>
		<station_id>KBFM</station_id>
		<state>AL</state>
            	<station_name>Mobile Downtown Airport</station_name>
		<latitude>30.36.50N</latitude>
		<longitude>088.03.48W</longitude>
            	<html_url>http://weather.noaa.gov/weather/current/KBFM.html</html_url>
            	<rss_url>http://weather.gov/data/current_obs/KBFM.rss</rss_url>
            	<xml_url>http://weather.gov/data/current_obs/KBFM.xml</xml_url>
	</station>

	<station>
		<station_id>KM82</station_id>
		<state>AL</state>
            	<station_name>Huntsville, Madison County Executive Airport</station_name>
		<latitude>NA</latitude>
		<longitude>NA</longitude>
            	<html_url>http://weather.noaa.gov/weather/current/KM82.html</html_url>
            	<rss_url>http://weather.gov/data/current_obs/KM82.rss</rss_url>
            	<xml_url>http://weather.gov/data/current_obs/KM82.xml</xml_url>
	</station>

	<station>
		<station_id>K79J</station_id>
		<state>AL</state>
            	<station_name>Andalusia-Opp Municipal Airport</station_name>
		<latitude>31.18.00N</latitude>
		<longitude>086.23.00W</longitude>
            	<html_url>http://weather.noaa.gov/weather/current/K79J.html</html_url>
            	<rss_url>http://weather.gov/data/current_obs/K79J.rss</rss_url>
            	<xml_url>http://weather.gov/data/current_obs/K79J.xml</xml_url>
	</station>

	<station>
		<station_id>KCKL</station_id>
		<state>AL</state>
            	<station_name>Centreville</station_name>
		<latitude>32.54N</latitude>
		<longitude>087.15W</longitude>
            	<html_url>http://weather.noaa.gov/weather/current/KCKL.html</html_url>
            	<rss_url>http://weather.gov/data/current_obs/KCKL.rss</rss_url>
            	<xml_url>http://weather.gov/data/current_obs/KCKL.xml</xml_url>
	</station>

	<station>
		<station_id>KMDQ</station_id>
		<state>AL</state>
            	<station_name>Huntsville-Madison Co Exec Airport</station_name>
		<latitude>34.51.41N</latitude>
		<longitude>086.33.26W</longitude>
            	<html_url>http://weather.noaa.gov/weather/current/KMDQ.html</html_url>
            	<rss_url>http://weather.gov/data/current_obs/KMDQ.rss</rss_url>
            	<xml_url>http://weather.gov/data/current_obs/KMDQ.xml</xml_url>
	</station>

	<station>
		<station_id>KALX</station_id>
		<state>AL</state>
            	<station_name>Alexander City/T.C. Russell Field</station_name>
		<latitude>32.54.53N</latitude>
		<longitude>085.57.46W</longitude>
            	<html_url>http://weather.noaa.gov/weather/current/KALX.html</html_url>
            	<rss_url>http://weather.gov/data/current_obs/KALX.rss</rss_url>
            	<xml_url>http://weather.gov/data/current_obs/KALX.xml</xml_url>
	</station>

	<station>
		<station_id>KARG</station_id>
		<state>AR</state>
            	<station_name>Walnut Ridge Automatic Weather Observing / Report</station_name>
		<latitude>36.08N</latitude>
		<longitude>090.55W</longitude>
            	<html_url>http://weather.noaa.gov/weather/current/KARG.html</html_url>
            	<rss_url>http://weather.gov/data/current_obs/KARG.rss</rss_url>
            	<xml_url>http://weather.gov/data/current_obs/KARG.xml</xml_url>
	</station>

	<station>
		<station_id>KASG</station_id>
		<state>AR</state>
            	<station_name>Springdale Municipal</station_name>
		<latitude>36.11N</latitude>
		<longitude>094.07W</longitude>
            	<html_url>http://weather.noaa.gov/weather/current/KASG.html</html_url>
            	<rss_url>http://weather.gov/data/current_obs/KASG.rss</rss_url>
            	<xml_url>http://weather.gov/data/current_obs/KASG.xml</xml_url>
	</station>

	<station>
		<station_id>KBPK</station_id>
		<state>AR</state>
            	<station_name>Mountain Home, Baxter County Regional Airport</station_name>
		<latitude>36.22.14N</latitude>
		<longitude>092.28.19W</longitude>
            	<html_url>http://weather.noaa.gov/weather/current/KBPK.html</html_url>
            	<rss_url>http://weather.gov/data/current_obs/KBPK.rss</rss_url>
            	<xml_url>http://weather.gov/data/current_obs/KBPK.xml</xml_url>
	</station>

	<station>
		<station_id>KBVX</station_id>
		<state>AR</state>
            	<station_name>Batesville Automatic Weather Observing / Reporting</station_name>
		<latitude>35.44N</latitude>
		<longitude>091.39W</longitude>
            	<html_url>http://weather.noaa.gov/weather/current/KBVX.html</html_url>
            	<rss_url>http://weather.gov/data/current_obs/KBVX.rss</rss_url>
            	<xml_url>http://weather.gov/data/current_obs/KBVX.xml</xml_url>
	</station>

	<station>
		<station_id>KBYH</station_id>
		<state>AR</state>
            	<station_name>Eaker Air Force Base</station_name>
		<latitude>35.58N</latitude>
		<longitude>089.57W</longitude>
            	<html_url>http://weather.noaa.gov/weather/current/KBYH.html</html_url>
            	<rss_url>http://weather.gov/data/current_obs/KBYH.rss</rss_url>
            	<xml_url>http://weather.gov/data/current_obs/KBYH.xml</xml_url>
	</station>

	<station>
		<station_id>KDEQ</station_id>
		<state>AR</state>
            	<station_name>De Queen, Helms Sevier County Airport</station_name>
		<latitude>34.02.49N</latitude>
		<longitude>094.23.58W</longitude>
            	<html_url>http://weather.noaa.gov/weather/current/KDEQ.html</html_url>
            	<rss_url>http://weather.gov/data/current_obs/KDEQ.rss</rss_url>
            	<xml_url>http://weather.gov/data/current_obs/KDEQ.xml</xml_url>
	</station>

	<station>
		<station_id>KELD</station_id>
		<state>AR</state>
            	<station_name>El Dorado, So. Arkansas Regional at Goodwin Field</station_name>
		<latitude>33.13.15N</latitude>
		<longitude>092.48.48W</longitude>
            	<html_url>http://weather.noaa.gov/weather/current/KELD.html</html_url>
            	<rss_url>http://weather.gov/data/current_obs/KELD.rss</rss_url>
            	<xml_url>http://weather.gov/data/current_obs/KELD.xml</xml_url>
	</station>

	<station>
		<station_id>KFLP</station_id>
		<state>AR</state>
            	<station_name>Flippin Automatic Weather Observing/Reporting Sys</station_name>
		<latitude>36.18N</latitude>
		<longitude>092.35W</longitude>
            	<html_url>http://weather.noaa.gov/weather/current/KFLP.html</html_url>
            	<rss_url>http://weather.gov/data/current_obs/KFLP.rss</rss_url>
            	<xml_url>http://weather.gov/data/current_obs/KFLP.xml</xml_url>
	</station>

	<station>
		<station_id>KFSM</station_id>
		<state>AR</state>
            	<station_name>Fort Smith Regional Airport</station_name>
		<latitude>35.20.01N</latitude>
		<longitude>094.21.54W</longitude>
            	<html_url>http://weather.noaa.gov/weather/current/KFSM.html</html_url>
            	<rss_url>http://weather.gov/data/current_obs/KFSM.rss</rss_url>
            	<xml_url>http://weather.gov/data/current_obs/KFSM.xml</xml_url>
	</station>

	<station>
		<station_id>KFYV</station_id>
		<state>AR</state>
            	<station_name>Fayetteville, Drake Field</station_name>
		<latitude>36.00.37N</latitude>
		<longitude>094.10.04W</longitude>
            	<html_url>http://weather.noaa.gov/weather/current/KFYV.html</html_url>
            	<rss_url>http://weather.gov/data/current_obs/KFYV.rss</rss_url>
            	<xml_url>http://weather.gov/data/current_obs/KFYV.xml</xml_url>
	</station>

	<station>
		<station_id>KHKA</station_id>
		<state>AR</state>
            	<station_name>Blytheville Municipal Airport</station_name>
		<latitude>35.56.20N</latitude>
		<longitude>089.49.57W</longitude>
            	<html_url>http://weather.noaa.gov/weather/current/KHKA.html</html_url>
            	<rss_url>http://weather.gov/data/current_obs/KHKA.rss</rss_url>
            	<xml_url>http://weather.gov/data/current_obs/KHKA.xml</xml_url>
	</station>

	<station>
		<station_id>KHOT</station_id>
		<state>AR</state>
            	<station_name>Hot Springs, Memorial Field Airport</station_name>
		<latitude>34.28.41N</latitude>
		<longitude>093.05.46W</longitude>
            	<html_url>http://weather.noaa.gov/weather/current/KHOT.html</html_url>
            	<rss_url>http://weather.gov/data/current_obs/KHOT.rss</rss_url>
            	<xml_url>http://weather.gov/data/current_obs/KHOT.xml</xml_url>
	</station>

	<station>
		<station_id>KHRO</station_id>
		<state>AR</state>
            	<station_name>Harrison, Boone County Airport</station_name>
		<latitude>36.15.42N</latitude>
		<longitude>093.09.17W</longitude>
            	<html_url>http://weather.noaa.gov/weather/current/KHRO.html</html_url>
            	<rss_url>http://weather.gov/data/current_obs/KHRO.rss</rss_url>
            	<xml_url>http://weather.gov/data/current_obs/KHRO.xml</xml_url>
	</station>

	<station>
		<station_id>KJBR</station_id>
		<state>AR</state>
            	<station_name>Jonesboro Municipal Airport</station_name>
		<latitude>35.50.14N</latitude>
		<longitude>090.38.35W</longitude>
            	<html_url>http://weather.noaa.gov/weather/current/KJBR.html</html_url>
            	<rss_url>http://weather.gov/data/current_obs/KJBR.rss</rss_url>
            	<xml_url>http://weather.gov/data/current_obs/KJBR.xml</xml_url>
	</station>

	<station>
		<station_id>KLIT</station_id>
		<state>AR</state>
            	<station_name>Little Rock, Adams Field</station_name>
		<latitude>34.43.36N</latitude>
		<longitude>092.14.10W</longitude>
            	<html_url>http://weather.noaa.gov/weather/current/KLIT.html</html_url>
            	<rss_url>http://weather.gov/data/current_obs/KLIT.rss</rss_url>
            	<xml_url>http://weather.gov/data/current_obs/KLIT.xml</xml_url>
	</station>

	<station>
		<station_id>KLLQ</station_id>
		<state>AR</state>
            	<station_name>Monticello Municipal Airport</station_name>
		<latitude>33.38.18N</latitude>
		<longitude>091.45.04W</longitude>
            	<html_url>http://weather.noaa.gov/weather/current/KLLQ.html</html_url>
            	<rss_url>http://weather.gov/data/current_obs/KLLQ.rss</rss_url>
            	<xml_url>http://weather.gov/data/current_obs/KLLQ.xml</xml_url>
	</station>

	<station>
		<station_id>KLRF</station_id>
		<state>AR</state>
            	<station_name>Little Rock Air Force Base</station_name>
		<latitude>34.55N</latitude>
		<longitude>092.09W</longitude>
            	<html_url>http://weather.noaa.gov/weather/current/KLRF.html</html_url>
            	<rss_url>http://weather.gov/data/current_obs/KLRF.rss</rss_url>
            	<xml_url>http://weather.gov/data/current_obs/KLRF.xml</xml_url>
	</station>

	<station>
		<station_id>KLZK</station_id>
		<state>AR</state>
            	<station_name>North Little Rock Airport</station_name>
		<latitude>34.50N</latitude>
		<longitude>092.15W</longitude>
            	<html_url>http://weather.noaa.gov/weather/current/KLZK.html</html_url>
            	<rss_url>http://weather.gov/data/current_obs/KLZK.rss</rss_url>
            	<xml_url>http://weather.gov/data/current_obs/KLZK.xml</xml_url>
	</station>

	<station>
		<station_id>KMWT</station_id>
		<state>AR</state>
            	<station_name>Mount Ida</station_name>
		<latitude>34.33N</latitude>
		<longitude>93.35W</longitude>
            	<html_url>http://weather.noaa.gov/weather/current/KMWT.html</html_url>
            	<rss_url>http://weather.gov/data/current_obs/KMWT.rss</rss_url>
            	<xml_url>http://weather.gov/data/current_obs/KMWT.xml</xml_url>
	</station>

	<station>
		<station_id>KPBF</station_id>
		<state>AR</state>
            	<station_name>Pine Bluff, Grider Field Airport</station_name>
		<latitude>34.10.30N</latitude>
		<longitude>091.56.05W</longitude>
            	<html_url>http://weather.noaa.gov/weather/current/KPBF.html</html_url>
            	<rss_url>http://weather.gov/data/current_obs/KPBF.rss</rss_url>
            	<xml_url>http://weather.gov/data/current_obs/KPBF.xml</xml_url>
	</station>

	<station>
		<station_id>KROG</station_id>
		<state>AR</state>
            	<station_name>Rogers Automatic Weather Observing / Reporting Sys</station_name>
		<latitude>36.22N</latitude>
		<longitude>094.06W</longitude>
            	<html_url>http://weather.noaa.gov/weather/current/KROG.html</html_url>
            	<rss_url>http://weather.gov/data/current_obs/KROG.rss</rss_url>
            	<xml_url>http://weather.gov/data/current_obs/KROG.xml</xml_url>
	</station>

	<station>
		<station_id>KRUE</station_id>
		<state>AR</state>
            	<station_name>Russellville Municipal Airport</station_name>
		<latitude>35.15.32N</latitude>
		<longitude>093.05.36W</longitude>
            	<html_url>http://weather.noaa.gov/weather/current/KRUE.html</html_url>
            	<rss_url>http://weather.gov/data/current_obs/KRUE.rss</rss_url>
            	<xml_url>http://weather.gov/data/current_obs/KRUE.xml</xml_url>
	</station>

	<station>
		<station_id>KSGT</station_id>
		<state>AR</state>
            	<station_name>Stuttgart Automatic Weather Observing / Reporting</station_name>
		<latitude>34.36N</latitude>
		<longitude>091.34W</longitude>
            	<html_url>http://weather.noaa.gov/weather/current/KSGT.html</html_url>
            	<rss_url>http://weather.gov/data/current_obs/KSGT.rss</rss_url>
            	<xml_url>http://weather.gov/data/current_obs/KSGT.xml</xml_url>
	</station>

	<station>
		<station_id>KSLG</station_id>
		<state>AR</state>
            	<station_name>Siloam Springs Automatic Weather Observing/Report</station_name>
		<latitude>36.12N</latitude>
		<longitude>094.29W</longitude>
            	<html_url>http://weather.noaa.gov/weather/current/KSLG.html</html_url>
            	<rss_url>http://weather.gov/data/current_obs/KSLG.rss</rss_url>
            	<xml_url>http://weather.gov/data/current_obs/KSLG.xml</xml_url>
	</station>

	<station>
		<station_id>KTXK</station_id>
		<state>AR</state>
            	<station_name>Texarkana Regional-Webb Field</station_name>
		<latitude>33.27.22N</latitude>
		<longitude>093.59.15W</longitude>
            	<html_url>http://weather.noaa.gov/weather/current/KTXK.html</html_url>
            	<rss_url>http://weather.gov/data/current_obs/KTXK.rss</rss_url>
            	<xml_url>http://weather.gov/data/current_obs/KTXK.xml</xml_url>
	</station>

	<station>
		<station_id>KVBT</station_id>
		<state>AR</state>
            	<station_name>Bentonville Automatic Weather Observing/Reporting</station_name>
		<latitude>36.21N</latitude>
		<longitude>094.13W</longitude>
            	<html_url>http://weather.noaa.gov/weather/current/KVBT.html</html_url>
            	<rss_url>http://weather.gov/data/current_obs/KVBT.rss</rss_url>
            	<xml_url>http://weather.gov/data/current_obs/KVBT.xml</xml_url>
	</station>

	<station>
		<station_id>KXNA</station_id>
		<state>AR</state>
            	<station_name>Fayetteville/Springdale, NW Arkansas Regl Airport</station_name>
		<latitude>36.16.55N</latitude>
		<longitude>NA</longitude>
            	<html_url>http://weather.noaa.gov/weather/current/KXNA.html</html_url>
            	<rss_url>http://weather.gov/data/current_obs/KXNA.rss</rss_url>
            	<xml_url>http://weather.gov/data/current_obs/KXNA.xml</xml_url>
	</station>

	<station>
		<station_id>KSRC</station_id>
		<state>AR</state>
            	<station_name>Searcy Municipal Airport</station_name>
		<latitude>35.12.43N</latitude>
		<longitude>091.44.14W</longitude>
            	<html_url>http://weather.noaa.gov/weather/current/KSRC.html</html_url>
            	<rss_url>http://weather.gov/data/current_obs/KSRC.rss</rss_url>
            	<xml_url>http://weather.gov/data/current_obs/KSRC.xml</xml_url>
	</station>

	<station>
		<station_id>KAWM</station_id>
		<state>AR</state>
            	<station_name>West Memphis</station_name>
		<latitude>35.08N</latitude>
		<longitude>090.14W</longitude>
            	<html_url>http://weather.noaa.gov/weather/current/KAWM.html</html_url>
            	<rss_url>http://weather.gov/data/current_obs/KAWM.rss</rss_url>
            	<xml_url>http://weather.gov/data/current_obs/KAWM.xml</xml_url>
	</station>

	<station>
		<station_id>NSTU</station_id>
		<state>AS</state>
            	<station_name>Pago Pago</station_name>
		<latitude>14.20S</latitude>
		<longitude>170.43W</longitude>
            	<html_url>http://weather.noaa.gov/weather/current/NSTU.html</html_url>
            	<rss_url>http://weather.gov/data/current_obs/NSTU.rss</rss_url>
            	<xml_url>http://weather.gov/data/current_obs/NSTU.xml</xml_url>
	</station>

	<station>
		<station_id>KCGZ</station_id>
		<state>AZ</state>
            	<station_name>Casa Grande (awos)</station_name>
		<latitude>32.57N</latitude>
		<longitude>111.46W</longitude>
            	<html_url>http://weather.noaa.gov/weather/current/KCGZ.html</html_url>
            	<rss_url>http://weather.gov/data/current_obs/KCGZ.rss</rss_url>
            	<xml_url>http://weather.gov/data/current_obs/KCGZ.xml</xml_url>
	</station>

	<station>
		<station_id>KDMA</station_id>
		<state>AZ</state>
            	<station_name>Davis-Monthan AFB</station_name>
		<latitude>32.10N</latitude>
		<longitude>110.53W</longitude>
            	<html_url>http://weather.noaa.gov/weather/current/KDMA.html</html_url>
            	<rss_url>http://weather.gov/data/current_obs/KDMA.rss</rss_url>
            	<xml_url>http://weather.gov/data/current_obs/KDMA.xml</xml_url>
	</station>

	<station>
		<station_id>KDUG</station_id>
		<state>AZ</state>
            	<station_name>Douglas Bisbee Intl Airport</station_name>
		<latitude>31.28.09N</latitude>
		<longitude>109.36.13W</longitude>
            	<html_url>http://weather.noaa.gov/weather/current/KDUG.html</html_url>
            	<rss_url>http://weather.gov/data/current_obs/KDUG.rss</rss_url>
            	<xml_url>http://weather.gov/data/current_obs/KDUG.xml</xml_url>
	</station>

	<station>
		<station_id>KDVT</station_id>
		<state>AZ</state>
            	<station_name>Deer Valley/Phoenix</station_name>
		<latitude>33.41.25N</latitude>
		<longitude>112.03.56W</longitude>
            	<html_url>http://weather.noaa.gov/weather/current/KDVT.html</html_url>
            	<rss_url>http://weather.gov/data/current_obs/KDVT.rss</rss_url>
            	<xml_url>http://weather.gov/data/current_obs/KDVT.xml</xml_url>
	</station>

	<station>
		<station_id>KFFZ</station_id>
		<state>AZ</state>
            	<station_name>Mesa/Falcon Field</station_name>
		<latitude>33.28N</latitude>
		<longitude>111.44W</longitude>
            	<html_url>http://weather.noaa.gov/weather/current/KFFZ.html</html_url>
            	<rss_url>http://weather.gov/data/current_obs/KFFZ.rss</rss_url>
            	<xml_url>http://weather.gov/data/current_obs/KFFZ.xml</xml_url>
	</station>

	<station>
		<station_id>KFHU</station_id>
		<state>AZ</state>
            	<station_name>Fort Huachuca/Libby</station_name>
		<latitude>31.35N</latitude>
		<longitude>110.20W</longitude>
            	<html_url>http://weather.noaa.gov/weather/current/KFHU.html</html_url>
            	<rss_url>http://weather.gov/data/current_obs/KFHU.rss</rss_url>
            	<xml_url>http://weather.gov/data/current_obs/KFHU.xml</xml_url>
	</station>

	<station>
		<station_id>KFLG</station_id>
		<state>AZ</state>
            	<station_name>Flagstaff (amos)</station_name>
		<latitude>35.08.25N</latitude>
		<longitude>111.40.20W</longitude>
            	<html_url>http://weather.noaa.gov/weather/current/KFLG.html</html_url>
            	<rss_url>http://weather.gov/data/current_obs/KFLG.rss</rss_url>
            	<xml_url>http://weather.gov/data/current_obs/KFLG.xml</xml_url>
	</station>

	<station>
		<station_id>KGBN</station_id>
		<state>AZ</state>
            	<station_name>Gila Bend (aaf)</station_name>
		<latitude>32.26N</latitude>
		<longitude>112.41W</longitude>
            	<html_url>http://weather.noaa.gov/weather/current/KGBN.html</html_url>
            	<rss_url>http://weather.gov/data/current_obs/KGBN.rss</rss_url>
            	<xml_url>http://weather.gov/data/current_obs/KGBN.xml</xml_url>
	</station>

	<station>
		<station_id>KGCN</station_id>
		<state>AZ</state>
            	<station_name>Grand Canyon Park</station_name>
		<latitude>35.56.46N</latitude>
		<longitude>112.09.17W</longitude>
            	<html_url>http://weather.noaa.gov/weather/current/KGCN.html</html_url>
            	<rss_url>http://weather.gov/data/current_obs/KGCN.rss</rss_url>
            	<xml_url>http://weather.gov/data/current_obs/KGCN.xml</xml_url>
	</station>

	<station>
		<station_id>KGEU</station_id>
		<state>AZ</state>
            	<station_name>Glendale</station_name>
		<latitude>33.31.38N</latitude>
		<longitude>112.17.43W</longitude>
            	<html_url>http://weather.noaa.gov/weather/current/KGEU.html</html_url>
            	<rss_url>http://weather.gov/data/current_obs/KGEU.rss</rss_url>
            	<xml_url>http://weather.gov/data/current_obs/KGEU.xml</xml_url>
	</station>

	<station>
		<station_id>KGYR</station_id>
		<state>AZ</state>
            	<station_name>Goodyear Municipal</station_name>
		<latitude>33.25N</latitude>
		<longitude>112.23W</longitude>
            	<html_url>http://weather.noaa.gov/weather/current/KGYR.html</html_url>
            	<rss_url>http://weather.gov/data/current_obs/KGYR.rss</rss_url>
            	<xml_url>http://weather.gov/data/current_obs/KGYR.xml</xml_url>
	</station>

	<station>
		<station_id>KIFP</station_id>
		<state>AZ</state>
            	<station_name>Bull Head City</station_name>
		<latitude>35.09.27N</latitude>
		<longitude>114.33.34W</longitude>
            	<html_url>http://weather.noaa.gov/weather/current/KIFP.html</html_url>
            	<rss_url>http://weather.gov/data/current_obs/KIFP.rss</rss_url>
            	<xml_url>http://weather.gov/data/current_obs/KIFP.xml</xml_url>
	</station>

	<station>
		<station_id>KIGM</station_id>
		<state>AZ</state>
            	<station_name>Kingman (amos)</station_name>
		<latitude>35.15.28N</latitude>
		<longitude>113.55.59W</longitude>
            	<html_url>http://weather.noaa.gov/weather/current/KIGM.html</html_url>
            	<rss_url>http://weather.gov/data/current_obs/KIGM.rss</rss_url>
            	<xml_url>http://weather.gov/data/current_obs/KIGM.xml</xml_url>
	</station>

	<station>
		<station_id>KINW</station_id>
		<state>AZ</state>
            	<station_name>Winslow (aut)</station_name>
		<latitude>35.01.41N</latitude>
		<longitude>110.43.15W</longitude>
            	<html_url>http://weather.noaa.gov/weather/current/KINW.html</html_url>
            	<rss_url>http://weather.gov/data/current_obs/KINW.rss</rss_url>
            	<xml_url>http://weather.gov/data/current_obs/KINW.xml</xml_url>
	</station>

	<station>
		<station_id>KIWA</station_id>
		<state>AZ</state>
            	<station_name>Williams AFB/Chandl</station_name>
		<latitude>33.19N</latitude>
		<longitude>111.39W</longitude>
            	<html_url>http://weather.noaa.gov/weather/current/KIWA.html</html_url>
            	<rss_url>http://weather.gov/data/current_obs/KIWA.rss</rss_url>
            	<xml_url>http://weather.gov/data/current_obs/KIWA.xml</xml_url>
	</station>

	<station>
		<station_id>KLUF</station_id>
		<state>AZ</state>
            	<station_name>Luke AFB/Phoenix</station_name>
		<latitude>33.32N</latitude>
		<longitude>112.23W</longitude>
            	<html_url>http://weather.noaa.gov/weather/current/KLUF.html</html_url>
            	<rss_url>http://weather.gov/data/current_obs/KLUF.rss</rss_url>
            	<xml_url>http://weather.gov/data/current_obs/KLUF.xml</xml_url>
	</station>

	<station>
		<station_id>KNYL</station_id>
		<state>AZ</state>
            	<station_name>Yuma Mcas</station_name>
		<latitude>32.37.25N</latitude>
		<longitude>113.45.50W</longitude>
            	<html_url>http://weather.noaa.gov/weather/current/KNYL.html</html_url>
            	<rss_url>http://weather.gov/data/current_obs/KNYL.rss</rss_url>
            	<xml_url>http://weather.gov/data/current_obs/KNYL.xml</xml_url>
	</station>

	<station>
		<station_id>KOLS</station_id>
		<state>AZ</state>
            	<station_name>Nogales Intl Airport</station_name>
		<latitude>31.25.15N</latitude>
		<longitude>110.50.45W</longitude>
            	<html_url>http://weather.noaa.gov/weather/current/KOLS.html</html_url>
            	<rss_url>http://weather.gov/data/current_obs/KOLS.rss</rss_url>
            	<xml_url>http://weather.gov/data/current_obs/KOLS.xml</xml_url>
	</station>

	<station>
		<station_id>KPGA</station_id>
		<state>AZ</state>
            	<station_name>Page Muni (amos)</station_name>
		<latitude>36.55.14N</latitude>
		<longitude>111.26.53W</longitude>
            	<html_url>http://weather.noaa.gov/weather/current/KPGA.html</html_url>
            	<rss_url>http://weather.gov/data/current_obs/KPGA.rss</rss_url>
            	<xml_url>http://weather.gov/data/current_obs/KPGA.xml</xml_url>
	</station>

	<station>
		<station_id>KPHX</station_id>
		<state>AZ</state>
            	<station_name>Phoenix/Sky Harbor</station_name>
		<latitude>33.26.03N</latitude>
		<longitude>112.03.04W</longitude>
            	<html_url>http://weather.noaa.gov/weather/current/KPHX.html</html_url>
            	<rss_url>http://weather.gov/data/current_obs/KPHX.rss</rss_url>
            	<xml_url>http://weather.gov/data/current_obs/KPHX.xml</xml_url>
	</station>

	<station>
		<station_id>KPRC</station_id>
		<state>AZ</state>
            	<station_name>Prescott/Love Fld</station_name>
		<latitude>34.38.57N</latitude>
		<longitude>112.25.20W</longitude>
            	<html_url>http://weather.noaa.gov/weather/current/KPRC.html</html_url>
            	<rss_url>http://weather.gov/data/current_obs/KPRC.rss</rss_url>
            	<xml_url>http://weather.gov/data/current_obs/KPRC.xml</xml_url>
	</station>

	<station>
		<station_id>KRQE</station_id>
		<state>AZ</state>
            	<station_name>Window Rock (was P34)</station_name>
		<latitude>35.39N</latitude>
		<longitude>109.04W</longitude>
            	<html_url>http://weather.noaa.gov/weather/current/KRQE.html</html_url>
            	<rss_url>http://weather.gov/data/current_obs/KRQE.rss</rss_url>
            	<xml_url>http://weather.gov/data/current_obs/KRQE.xml</xml_url>
	</station>

	<station>
		<station_id>KSAD</station_id>
		<state>AZ</state>
            	<station_name>Safford Municipal</station_name>
		<latitude>32.51.26N</latitude>
		<longitude>109.38.08W</longitude>
            	<html_url>http://weather.noaa.gov/weather/current/KSAD.html</html_url>
            	<rss_url>http://weather.gov/data/current_obs/KSAD.rss</rss_url>
            	<xml_url>http://weather.gov/data/current_obs/KSAD.xml</xml_url>
	</station>

	<station>
		<station_id>KSDL</station_id>
		<state>AZ</state>
            	<station_name>Scottsdale Muni</station_name>
		<latitude>33.37.22N</latitude>
		<longitude>111.54.38W</longitude>
            	<html_url>http://weather.noaa.gov/weather/current/KSDL.html</html_url>
            	<rss_url>http://weather.gov/data/current_obs/KSDL.rss</rss_url>
            	<xml_url>http://weather.gov/data/current_obs/KSDL.xml</xml_url>
	</station>

	<station>
		<station_id>KSJN</station_id>
		<state>AZ</state>
            	<station_name>St. Johns Air Park</station_name>
		<latitude>34.31.06N</latitude>
		<longitude>109.22.45W</longitude>
            	<html_url>http://weather.noaa.gov/weather/current/KSJN.html</html_url>
            	<rss_url>http://weather.gov/data/current_obs/KSJN.rss</rss_url>
            	<xml_url>http://weather.gov/data/current_obs/KSJN.xml</xml_url>
	</station>

	<station>
		<station_id>KSOW</station_id>
		<state>AZ</state>
            	<station_name>Show Low Municipal</station_name>
		<latitude>34.15.55N</latitude>
		<longitude>110.00.20W</longitude>
            	<html_url>http://weather.noaa.gov/weather/current/KSOW.html</html_url>
            	<rss_url>http://weather.gov/data/current_obs/KSOW.rss</rss_url>
            	<xml_url>http://weather.gov/data/current_obs/KSOW.xml</xml_url>
	</station>

	<station>
		<station_id>KTUS</station_id>
		<state>AZ</state>
            	<station_name>Tucson Intl Airport</station_name>
		<latitude>32.07.53N</latitude>
		<longitude>110.57.19W</longitude>
            	<html_url>http://weather.noaa.gov/weather/current/KTUS.html</html_url>
            	<rss_url>http://weather.gov/data/current_obs/KTUS.rss</rss_url>
            	<xml_url>http://weather.gov/data/current_obs/KTUS.xml</xml_url>
	</station>

	<station>
		<station_id>KYUM</station_id>
		<state>AZ</state>
            	<station_name>Yuma</station_name>
		<latitude>32.39N</latitude>
		<longitude>114.36W</longitude>
            	<html_url>http://weather.noaa.gov/weather/current/KYUM.html</html_url>
            	<rss_url>http://weather.gov/data/current_obs/KYUM.rss</rss_url>
            	<xml_url>http://weather.gov/data/current_obs/KYUM.xml</xml_url>
	</station>

	<station>
		<station_id>K40G</station_id>
		<state>AZ</state>
            	<station_name>Grand Canyon, Valle Airport</station_name>
		<latitude>35.39.03N</latitude>
		<longitude>112.08.46W</longitude>
            	<html_url>http://weather.noaa.gov/weather/current/K40G.html</html_url>
            	<rss_url>http://weather.gov/data/current_obs/K40G.rss</rss_url>
            	<xml_url>http://weather.gov/data/current_obs/K40G.xml</xml_url>
	</station>

	<station>
		<station_id>KWTR</station_id>
		<state>AZ</state>
            	<station_name>Whiteriver Airport</station_name>
		<latitude>41.41N</latitude>
		<longitude>104.87W</longitude>
            	<html_url>http://weather.noaa.gov/weather/current/KWTR.html</html_url>
            	<rss_url>http://weather.gov/data/current_obs/KWTR.rss</rss_url>
            	<xml_url>http://weather.gov/data/current_obs/KWTR.xml</xml_url>
	</station>

	<station>
		<station_id>KCHD</station_id>
		<state>AZ</state>
            	<station_name>Chandler Municipal Airport</station_name>
		<latitude>33.16.09N</latitude>
		<longitude>111.48.40W</longitude>
            	<html_url>http://weather.noaa.gov/weather/current/KCHD.html</html_url>
            	<rss_url>http://weather.gov/data/current_obs/KCHD.rss</rss_url>
            	<xml_url>http://weather.gov/data/current_obs/KCHD.xml</xml_url>
	</station>

	<station>
		<station_id>K87Q</station_id>
		<state>CA</state>
            	<station_name>Pt Piedras(cg/Amos)</station_name>
		<latitude>35.39.56N</latitude>
		<longitude>121.17.05W</longitude>
            	<html_url>http://weather.noaa.gov/weather/current/K87Q.html</html_url>
            	<rss_url>http://weather.gov/data/current_obs/K87Q.rss</rss_url>
            	<xml_url>http://weather.gov/data/current_obs/K87Q.xml</xml_url>
	</station>

	<station>
		<station_id>KAAT</station_id>
		<state>CA</state>
            	<station_name>Alturas (was O00)</station_name>
		<latitude>41.29.29N</latitude>
		<longitude>120.33.52W</longitude>
            	<html_url>http://weather.noaa.gov/weather/current/KAAT.html</html_url>
            	<rss_url>http://weather.gov/data/current_obs/KAAT.rss</rss_url>
            	<xml_url>http://weather.gov/data/current_obs/KAAT.xml</xml_url>
	</station>

	<station>
		<station_id>KACV</station_id>
		<state>CA</state>
            	<station_name>Arcata/Eureka Airport</station_name>
		<latitude>40.58.41N</latitude>
		<longitude>124.06.31W</longitude>
            	<html_url>http://weather.noaa.gov/weather/current/KACV.html</html_url>
            	<rss_url>http://weather.gov/data/current_obs/KACV.rss</rss_url>
            	<xml_url>http://weather.gov/data/current_obs/KACV.xml</xml_url>
	</station>

	<station>
		<station_id>KAPC</station_id>
		<state>CA</state>
            	<station_name>Napa Co. Airport</station_name>
		<latitude>38.12.27N</latitude>
		<longitude>122.16.46W</longitude>
            	<html_url>http://weather.noaa.gov/weather/current/KAPC.html</html_url>
            	<rss_url>http://weather.gov/data/current_obs/KAPC.rss</rss_url>
            	<xml_url>http://weather.gov/data/current_obs/KAPC.xml</xml_url>
	</station>

	<station>
		<station_id>KBAB</station_id>
		<state>CA</state>
            	<station_name>Beale AFB/Marysville</station_name>
		<latitude>39.08N</latitude>
		<longitude>121.26W</longitude>
            	<html_url>http://weather.noaa.gov/weather/current/KBAB.html</html_url>
            	<rss_url>http://weather.gov/data/current_obs/KBAB.rss</rss_url>
            	<xml_url>http://weather.gov/data/current_obs/KBAB.xml</xml_url>
	</station>

	<station>
		<station_id>KBFL</station_id>
		<state>CA</state>
            	<station_name>Bakersfield/Meadows</station_name>
		<latitude>35.26.01N</latitude>
		<longitude>119.03.24W</longitude>
            	<html_url>http://weather.noaa.gov/weather/current/KBFL.html</html_url>
            	<rss_url>http://weather.gov/data/current_obs/KBFL.rss</rss_url>
            	<xml_url>http://weather.gov/data/current_obs/KBFL.xml</xml_url>
	</station>

	<station>
		<station_id>KBIH</station_id>
		<state>CA</state>
            	<station_name>Bishop Airport</station_name>
		<latitude>37.22.16N</latitude>
		<longitude>118.21.29W</longitude>
            	<html_url>http://weather.noaa.gov/weather/current/KBIH.html</html_url>
            	<rss_url>http://weather.gov/data/current_obs/KBIH.rss</rss_url>
            	<xml_url>http://weather.gov/data/current_obs/KBIH.xml</xml_url>
	</station>

	<station>
		<station_id>KBLH</station_id>
		<state>CA</state>
            	<station_name>Blythe Airport</station_name>
		<latitude>33.37.09N</latitude>
		<longitude>114.43.01W</longitude>
            	<html_url>http://weather.noaa.gov/weather/current/KBLH.html</html_url>
            	<rss_url>http://weather.gov/data/current_obs/KBLH.rss</rss_url>
            	<xml_url>http://weather.gov/data/current_obs/KBLH.xml</xml_url>
	</station>

	<station>
		<station_id>KBLU</station_id>
		<state>CA</state>
            	<station_name>Blue Canyon (amos)</station_name>
		<latitude>39.16.34N</latitude>
		<longitude>120.42.29W</longitude>
            	<html_url>http://weather.noaa.gov/weather/current/KBLU.html</html_url>
            	<rss_url>http://weather.gov/data/current_obs/KBLU.rss</rss_url>
            	<xml_url>http://weather.gov/data/current_obs/KBLU.xml</xml_url>
	</station>

	<station>
		<station_id>KBUR</station_id>
		<state>CA</state>
            	<station_name>Burbank/Glendale</station_name>
		<latitude>34.11.59N</latitude>
		<longitude>118.21.53W</longitude>
            	<html_url>http://weather.noaa.gov/weather/current/KBUR.html</html_url>
