<?xml version="1.0" encoding="UTF-8"?>
<wx_station_index>
        <credit>NOAA's National Weather Service</credit>
        <credit_URL>http://weather.gov/</credit_URL>
        <image>
                <url>http://weather.gov/images/xml_logo.gif</url>
                <title>NOAA's National Weather Service</title>
                <link>http://weather.gov</link>
        </image>
        <suggested_pickup>08:00 EST</suggested_pickup>
        <suggested_pickup_period>1140</suggested_pickup_period>
	<station>
		<station_id>TAPA</station_id>
		<state>AG</state>
            	<station_name>Vc Bird Intl Airport Antigua</station_name>
		<latitude>17.117</latitude>
		<longitude>-61.783</longitude>
            	<html_url>http://weather.noaa.gov/weather/current/TAPA.html</html_url>
            	<rss_url>http://weather.gov/xml/current_obs/TAPA.rss</rss_url>
            	<xml_url>http://weather.gov/xml/current_obs/TAPA.xml</xml_url>
	</station>

	<station>
		<station_id>TKPN</station_id>
		<state>AG</state>
            	<station_name>Charlestown/Newcast</station_name>
		<latitude>17.2</latitude>
		<longitude>-62.583</longitude>
            	<html_url>http://weather.noaa.gov/weather/current/TKPN.html</html_url>
            	<rss_url>http://weather.gov/xml/current_obs/TKPN.rss</rss_url>
            	<xml_url>http://weather.gov/xml/current_obs/TKPN.xml</xml_url>
	</station>

	<station>
		<station_id>TRPM</station_id>
		<state>AG</state>
            	<station_name>Blackburne/Plymouth</station_name>
		<latitude>16.75</latitude>
		<longitude>-62.167</longitude>
            	<html_url>http://weather.noaa.gov/weather/current/TRPM.html</html_url>
            	<rss_url>http://weather.gov/xml/current_obs/TRPM.rss</rss_url>
            	<xml_url>http://weather.gov/xml/current_obs/TRPM.xml</xml_url>
	</station>

	<station>
		<station_id>PAAK</station_id>
		<state>AK</state>
            	<station_name>Atka Airport</station_name>
		<latitude>52.217</latitude>
		<longitude>-174.2</longitude>
            	<html_url>http://weather.noaa.gov/weather/current/PAAK.html</html_url>
            	<rss_url>http://weather.gov/xml/current_obs/PAAK.rss</rss_url>
            	<xml_url>http://weather.gov/xml/current_obs/PAAK.xml</xml_url>
	</station>

	<station>
		<station_id>PAAP</station_id>
		<state>AK</state>
            	<station_name>Port Alexander</station_name>
		<latitude>56.26</latitude>
		<longitude>-134.66</longitude>
            	<html_url>http://weather.noaa.gov/weather/current/PAAP.html</html_url>
            	<rss_url>http://weather.gov/xml/current_obs/PAAP.rss</rss_url>
            	<xml_url>http://weather.gov/xml/current_obs/PAAP.xml</xml_url>
	</station>

	<station>
		<station_id>PAAQ</station_id>
		<state>AK</state>
            	<station_name>Palmer</station_name>
		<latitude>61.61</latitude>
		<longitude>-149.09</longitude>
            	<html_url>http://weather.noaa.gov/weather/current/PAAQ.html</html_url>
            	<rss_url>http://weather.gov/xml/current_obs/PAAQ.rss</rss_url>
            	<xml_url>http://weather.gov/xml/current_obs/PAAQ.xml</xml_url>
	</station>

	<station>
		<station_id>PABA</station_id>
		<state>AK</state>
            	<station_name>Barter Island</station_name>
		<latitude>70.14</latitude>
		<longitude>-143.59</longitude>
            	<html_url>http://weather.noaa.gov/weather/current/PABA.html</html_url>
            	<rss_url>http://weather.gov/xml/current_obs/PABA.rss</rss_url>
            	<xml_url>http://weather.gov/xml/current_obs/PABA.xml</xml_url>
	</station>

	<station>
		<station_id>PABE</station_id>
		<state>AK</state>
            	<station_name>Bethel</station_name>
		<latitude>60.78</latitude>
		<longitude>-161.8</longitude>
            	<html_url>http://weather.noaa.gov/weather/current/PABE.html</html_url>
            	<rss_url>http://weather.gov/xml/current_obs/PABE.rss</rss_url>
            	<xml_url>http://weather.gov/xml/current_obs/PABE.xml</xml_url>
	</station>

	<station>
		<station_id>PABI</station_id>
		<state>AK</state>
            	<station_name>Delta Junction/Allan AAF</station_name>
		<latitude>63.97</latitude>
		<longitude>-145.7</longitude>
            	<html_url>http://weather.noaa.gov/weather/current/PABI.html</html_url>
            	<rss_url>http://weather.gov/xml/current_obs/PABI.rss</rss_url>
            	<xml_url>http://weather.gov/xml/current_obs/PABI.xml</xml_url>
	</station>

	<station>
		<station_id>PABL</station_id>
		<state>AK</state>
            	<station_name>Buckland Airport</station_name>
		<latitude>65.99</latitude>
		<longitude>-161.12</longitude>
            	<html_url>http://weather.noaa.gov/weather/current/PABL.html</html_url>
            	<rss_url>http://weather.gov/xml/current_obs/PABL.rss</rss_url>
            	<xml_url>http://weather.gov/xml/current_obs/PABL.xml</xml_url>
	</station>

	<station>
		<station_id>PABN</station_id>
		<state>AK</state>
            	<station_name>Nabesna / Devil Mountain</station_name>
		<latitude>62.41</latitude>
		<longitude>-143</longitude>
            	<html_url>http://weather.noaa.gov/weather/current/PABN.html</html_url>
            	<rss_url>http://weather.gov/xml/current_obs/PABN.rss</rss_url>
            	<xml_url>http://weather.gov/xml/current_obs/PABN.xml</xml_url>
	</station>

	<station>
		<station_id>PABR</station_id>
		<state>AK</state>
            	<station_name>Barrow/Wiley Post</station_name>
		<latitude>71.29</latitude>
		<longitude>-156.77</longitude>
            	<html_url>http://weather.noaa.gov/weather/current/PABR.html</html_url>
            	<rss_url>http://weather.gov/xml/current_obs/PABR.rss</rss_url>
            	<xml_url>http://weather.gov/xml/current_obs/PABR.xml</xml_url>
	</station>

	<station>
		<station_id>PABT</station_id>
		<state>AK</state>
            	<station_name>Bettles Airport</station_name>
		<latitude>66.92</latitude>
		<longitude>-151.52</longitude>
            	<html_url>http://weather.noaa.gov/weather/current/PABT.html</html_url>
            	<rss_url>http://weather.gov/xml/current_obs/PABT.rss</rss_url>
            	<xml_url>http://weather.gov/xml/current_obs/PABT.xml</xml_url>
	</station>

	<station>
		<station_id>PABV</station_id>
		<state>AK</state>
            	<station_name>Birchwood</station_name>
		<latitude>61.42</latitude>
		<longitude>-149.52</longitude>
            	<html_url>http://weather.noaa.gov/weather/current/PABV.html</html_url>
            	<rss_url>http://weather.gov/xml/current_obs/PABV.rss</rss_url>
            	<xml_url>http://weather.gov/xml/current_obs/PABV.xml</xml_url>
	</station>

	<station>
		<station_id>PACD</station_id>
		<state>AK</state>
            	<station_name>Cold Bay Airport</station_name>
		<latitude>55.21</latitude>
		<longitude>-162.72</longitude>
            	<html_url>http://weather.noaa.gov/weather/current/PACD.html</html_url>
            	<rss_url>http://weather.gov/xml/current_obs/PACD.rss</rss_url>
            	<xml_url>http://weather.gov/xml/current_obs/PACD.xml</xml_url>
	</station>

	<station>
		<station_id>PACV</station_id>
		<state>AK</state>
            	<station_name>Cordova/Merle K</station_name>
		<latitude>60.5</latitude>
		<longitude>-145.5</longitude>
            	<html_url>http://weather.noaa.gov/weather/current/PACV.html</html_url>
            	<rss_url>http://weather.gov/xml/current_obs/PACV.rss</rss_url>
            	<xml_url>http://weather.gov/xml/current_obs/PACV.xml</xml_url>
	</station>

	<station>
		<station_id>PACZ</station_id>
		<state>AK</state>
            	<station_name>Cape Romanzoff Airways Facilities Sector</station_name>
		<latitude>61.783</latitude>
		<longitude>-166.033</longitude>
            	<html_url>http://weather.noaa.gov/weather/current/PACZ.html</html_url>
            	<rss_url>http://weather.gov/xml/current_obs/PACZ.rss</rss_url>
            	<xml_url>http://weather.gov/xml/current_obs/PACZ.xml</xml_url>
	</station>

	<station>
		<station_id>PADE</station_id>
		<state>AK</state>
            	<station_name>Deering Airport</station_name>
		<latitude>66.08</latitude>
		<longitude>-162.75</longitude>
            	<html_url>http://weather.noaa.gov/weather/current/PADE.html</html_url>
            	<rss_url>http://weather.gov/xml/current_obs/PADE.rss</rss_url>
            	<xml_url>http://weather.gov/xml/current_obs/PADE.xml</xml_url>
	</station>

	<station>
		<station_id>PADK</station_id>
		<state>AK</state>
            	<station_name>Adak Is. NAF</station_name>
		<latitude>51.89</latitude>
		<longitude>-176.65</longitude>
            	<html_url>http://weather.noaa.gov/weather/current/PADK.html</html_url>
            	<rss_url>http://weather.gov/xml/current_obs/PADK.rss</rss_url>
            	<xml_url>http://weather.gov/xml/current_obs/PADK.xml</xml_url>
	</station>

	<station>
		<station_id>PADL</station_id>
		<state>AK</state>
            	<station_name>Dillingham Municipal</station_name>
		<latitude>59.05</latitude>
		<longitude>-158.52</longitude>
            	<html_url>http://weather.noaa.gov/weather/current/PADL.html</html_url>
            	<rss_url>http://weather.gov/xml/current_obs/PADL.rss</rss_url>
            	<xml_url>http://weather.gov/xml/current_obs/PADL.xml</xml_url>
	</station>

	<station>
		<station_id>PADQ</station_id>
		<state>AK</state>
            	<station_name>Kodiak</station_name>
		<latitude>57.76</latitude>
		<longitude>-152.5</longitude>
            	<html_url>http://weather.noaa.gov/weather/current/PADQ.html</html_url>
            	<rss_url>http://weather.gov/xml/current_obs/PADQ.rss</rss_url>
            	<xml_url>http://weather.gov/xml/current_obs/PADQ.xml</xml_url>
	</station>

	<station>
		<station_id>PADT</station_id>
		<state>AK</state>
            	<station_name>Slana Airport</station_name>
		<latitude>62.71</latitude>
		<longitude>-143.99</longitude>
            	<html_url>http://weather.noaa.gov/weather/current/PADT.html</html_url>
            	<rss_url>http://weather.gov/xml/current_obs/PADT.rss</rss_url>
            	<xml_url>http://weather.gov/xml/current_obs/PADT.xml</xml_url>
	</station>

	<station>
		<station_id>PADU</station_id>
		<state>AK</state>
            	<station_name>Unalaska</station_name>
		<latitude>53.89</latitude>
		<longitude>-166.53</longitude>
            	<html_url>http://weather.noaa.gov/weather/current/PADU.html</html_url>
            	<rss_url>http://weather.gov/xml/current_obs/PADU.rss</rss_url>
            	<xml_url>http://weather.gov/xml/current_obs/PADU.xml</xml_url>
	</station>

	<station>
		<station_id>PAEC</station_id>
		<state>AK</state>
            	<station_name>Chulitna</station_name>
		<latitude>62.89</latitude>
		<longitude>-149.84</longitude>
            	<html_url>http://weather.noaa.gov/weather/current/PAEC.html</html_url>
            	<rss_url>http://weather.gov/xml/current_obs/PAEC.rss</rss_url>
            	<xml_url>http://weather.gov/xml/current_obs/PAEC.xml</xml_url>
	</station>

	<station>
		<station_id>PAED</station_id>
		<state>AK</state>
            	<station_name>Anchorage / Elmendorf Air Force Base</station_name>
		<latitude>61.25</latitude>
		<longitude>-149.8</longitude>
            	<html_url>http://weather.noaa.gov/weather/current/PAED.html</html_url>
            	<rss_url>http://weather.gov/xml/current_obs/PAED.rss</rss_url>
            	<xml_url>http://weather.gov/xml/current_obs/PAED.xml</xml_url>
	</station>

	<station>
		<station_id>PAEG</station_id>
		<state>AK</state>
            	<station_name>Eagle Airport</station_name>
		<latitude>64.78</latitude>
		<longitude>-141.15</longitude>
            	<html_url>http://weather.noaa.gov/weather/current/PAEG.html</html_url>
            	<rss_url>http://weather.gov/xml/current_obs/PAEG.rss</rss_url>
            	<xml_url>http://weather.gov/xml/current_obs/PAEG.xml</xml_url>
	</station>

	<station>
		<station_id>PAEH</station_id>
		<state>AK</state>
            	<station_name>Cape Newenham Airways Facilities Sector</station_name>
		<latitude>58.66</latitude>
		<longitude>-162.07</longitude>
            	<html_url>http://weather.noaa.gov/weather/current/PAEH.html</html_url>
            	<rss_url>http://weather.gov/xml/current_obs/PAEH.rss</rss_url>
            	<xml_url>http://weather.gov/xml/current_obs/PAEH.xml</xml_url>
	</station>

	<station>
		<station_id>PAEI</station_id>
		<state>AK</state>
            	<station_name>Fairbanks / Eielson Air Force Base</station_name>
		<latitude>64.65</latitude>
		<longitude>-147.067</longitude>
            	<html_url>http://weather.noaa.gov/weather/current/PAEI.html</html_url>
            	<rss_url>http://weather.gov/xml/current_obs/PAEI.rss</rss_url>
            	<xml_url>http://weather.gov/xml/current_obs/PAEI.xml</xml_url>
	</station>

	<station>
		<station_id>PAEL</station_id>
		<state>AK</state>
            	<station_name>Elfin Cove Seaplane</station_name>
		<latitude>58.21</latitude>
		<longitude>-136.35</longitude>
            	<html_url>http://weather.noaa.gov/weather/current/PAEL.html</html_url>
            	<rss_url>http://weather.gov/xml/current_obs/PAEL.rss</rss_url>
            	<xml_url>http://weather.gov/xml/current_obs/PAEL.xml</xml_url>
	</station>

	<station>
		<station_id>PAEM</station_id>
		<state>AK</state>
            	<station_name>Emmonak</station_name>
		<latitude>62.77</latitude>
		<longitude>-164.5</longitude>
            	<html_url>http://weather.noaa.gov/weather/current/PAEM.html</html_url>
            	<rss_url>http://weather.gov/xml/current_obs/PAEM.rss</rss_url>
            	<xml_url>http://weather.gov/xml/current_obs/PAEM.xml</xml_url>
	</station>

	<station>
		<station_id>PAEN</station_id>
		<state>AK</state>
            	<station_name>Kenai Municipal Airport</station_name>
		<latitude>60.58</latitude>
		<longitude>-151.25</longitude>
            	<html_url>http://weather.noaa.gov/weather/current/PAEN.html</html_url>
            	<rss_url>http://weather.gov/xml/current_obs/PAEN.rss</rss_url>
            	<xml_url>http://weather.gov/xml/current_obs/PAEN.xml</xml_url>
	</station>

	<station>
		<station_id>PAER</station_id>
		<state>AK</state>
            	<station_name>Merrill Pass West</station_name>
		<latitude>61.25</latitude>
		<longitude>-153.817</longitude>
            	<html_url>http://weather.noaa.gov/weather/current/PAER.html</html_url>
            	<rss_url>http://weather.gov/xml/current_obs/PAER.rss</rss_url>
            	<xml_url>http://weather.gov/xml/current_obs/PAER.xml</xml_url>
	</station>

	<station>
		<station_id>PAFA</station_id>
		<state>AK</state>
            	<station_name>Fairbanks International Airport</station_name>
		<latitude>64.82</latitude>
		<longitude>-147.87</longitude>
            	<html_url>http://weather.noaa.gov/weather/current/PAFA.html</html_url>
            	<rss_url>http://weather.gov/xml/current_obs/PAFA.rss</rss_url>
            	<xml_url>http://weather.gov/xml/current_obs/PAFA.xml</xml_url>
	</station>

	<station>
		<station_id>PAFB</station_id>
		<state>AK</state>
            	<station_name>Wainwright U. S. Army Airfield</station_name>
		<latitude>64.833</latitude>
		<longitude>-147.617</longitude>
            	<html_url>http://weather.noaa.gov/weather/current/PAFB.html</html_url>
            	<rss_url>http://weather.gov/xml/current_obs/PAFB.rss</rss_url>
            	<xml_url>http://weather.gov/xml/current_obs/PAFB.xml</xml_url>
	</station>

	<station>
		<station_id>PAFE</station_id>
		<state>AK</state>
            	<station_name>Kake Airport</station_name>
		<latitude>56.97</latitude>
		<longitude>-133.95</longitude>
            	<html_url>http://weather.noaa.gov/weather/current/PAFE.html</html_url>
            	<rss_url>http://weather.gov/xml/current_obs/PAFE.rss</rss_url>
            	<xml_url>http://weather.gov/xml/current_obs/PAFE.xml</xml_url>
	</station>

	<station>
		<station_id>PAFK</station_id>
		<state>AK</state>
            	<station_name>Farewell Lake Seaplane Base</station_name>
		<latitude>62.54</latitude>
		<longitude>-153.62</longitude>
            	<html_url>http://weather.noaa.gov/weather/current/PAFK.html</html_url>
            	<rss_url>http://weather.gov/xml/current_obs/PAFK.rss</rss_url>
            	<xml_url>http://weather.gov/xml/current_obs/PAFK.xml</xml_url>
	</station>

	<station>
		<station_id>PAFM</station_id>
		<state>AK</state>
            	<station_name>Ambler</station_name>
		<latitude>67.1</latitude>
		<longitude>-157.85</longitude>
            	<html_url>http://weather.noaa.gov/weather/current/PAFM.html</html_url>
            	<rss_url>http://weather.gov/xml/current_obs/PAFM.rss</rss_url>
            	<xml_url>http://weather.gov/xml/current_obs/PAFM.xml</xml_url>
	</station>

	<station>
		<station_id>PAGA</station_id>
		<state>AK</state>
            	<station_name>Galena A.</station_name>
		<latitude>64.74</latitude>
		<longitude>-156.94</longitude>
            	<html_url>http://weather.noaa.gov/weather/current/PAGA.html</html_url>
            	<rss_url>http://weather.gov/xml/current_obs/PAGA.rss</rss_url>
            	<xml_url>http://weather.gov/xml/current_obs/PAGA.xml</xml_url>
	</station>

	<station>
		<station_id>PAGB</station_id>
		<state>AK</state>
            	<station_name>Galbraith Lake</station_name>
		<latitude>68.49</latitude>
		<longitude>-149.49</longitude>
            	<html_url>http://weather.noaa.gov/weather/current/PAGB.html</html_url>
            	<rss_url>http://weather.gov/xml/current_obs/PAGB.rss</rss_url>
            	<xml_url>http://weather.gov/xml/current_obs/PAGB.xml</xml_url>
	</station>

	<station>
		<station_id>PAGK</station_id>
		<state>AK</state>
            	<station_name>Gulkana Airport</station_name>
		<latitude>62.15</latitude>
		<longitude>-145.45</longitude>
            	<html_url>http://weather.noaa.gov/weather/current/PAGK.html</html_url>
            	<rss_url>http://weather.gov/xml/current_obs/PAGK.rss</rss_url>
            	<xml_url>http://weather.gov/xml/current_obs/PAGK.xml</xml_url>
	</station>

	<station>
		<station_id>PAGL</station_id>
		<state>AK</state>
            	<station_name>Golovin Airport</station_name>
		<latitude>64.54</latitude>
		<longitude>-163.04</longitude>
            	<html_url>http://weather.noaa.gov/weather/current/PAGL.html</html_url>
            	<rss_url>http://weather.gov/xml/current_obs/PAGL.rss</rss_url>
            	<xml_url>http://weather.gov/xml/current_obs/PAGL.xml</xml_url>
	</station>

	<station>
		<station_id>PAGM</station_id>
		<state>AK</state>
            	<station_name>Gambell Airport</station_name>
		<latitude>63.77</latitude>
		<longitude>-171.74</longitude>
            	<html_url>http://weather.noaa.gov/weather/current/PAGM.html</html_url>
            	<rss_url>http://weather.gov/xml/current_obs/PAGM.rss</rss_url>
            	<xml_url>http://weather.gov/xml/current_obs/PAGM.xml</xml_url>
	</station>

	<station>
		<station_id>PAGS</station_id>
		<state>AK</state>
            	<station_name>Gustavus</station_name>
		<latitude>58.42</latitude>
		<longitude>-135.73</longitude>
            	<html_url>http://weather.noaa.gov/weather/current/PAGS.html</html_url>
            	<rss_url>http://weather.gov/xml/current_obs/PAGS.rss</rss_url>
            	<xml_url>http://weather.gov/xml/current_obs/PAGS.xml</xml_url>
	</station>

	<station>
		<station_id>PAGY</station_id>
		<state>AK</state>
            	<station_name>Skagway</station_name>
		<latitude>59.48</latitude>
		<longitude>-135.32</longitude>
            	<html_url>http://weather.noaa.gov/weather/current/PAGY.html</html_url>
            	<rss_url>http://weather.gov/xml/current_obs/PAGY.rss</rss_url>
            	<xml_url>http://weather.gov/xml/current_obs/PAGY.xml</xml_url>
	</station>

	<station>
		<station_id>PAHN</station_id>
		<state>AK</state>
            	<station_name>Haines Airport</station_name>
		<latitude>59.25</latitude>
		<longitude>-135.52</longitude>
            	<html_url>http://weather.noaa.gov/weather/current/PAHN.html</html_url>
            	<rss_url>http://weather.gov/xml/current_obs/PAHN.rss</rss_url>
            	<xml_url>http://weather.gov/xml/current_obs/PAHN.xml</xml_url>
	</station>

	<station>
		<station_id>PAHO</station_id>
		<state>AK</state>
            	<station_name>Homer</station_name>
		<latitude>59.64</latitude>
		<longitude>-151.5</longitude>
            	<html_url>http://weather.noaa.gov/weather/current/PAHO.html</html_url>
            	<rss_url>http://weather.gov/xml/current_obs/PAHO.rss</rss_url>
            	<xml_url>http://weather.gov/xml/current_obs/PAHO.xml</xml_url>
	</station>

	<station>
		<station_id>PAHP</station_id>
		<state>AK</state>
            	<station_name>Hooper Bay Automatic Weather Observing / Reporting</station_name>
		<latitude>61.54</latitude>
		<longitude>-166.16</longitude>
            	<html_url>http://weather.noaa.gov/weather/current/PAHP.html</html_url>
            	<rss_url>http://weather.gov/xml/current_obs/PAHP.rss</rss_url>
            	<xml_url>http://weather.gov/xml/current_obs/PAHP.xml</xml_url>
	</station>

	<station>
		<station_id>PAHS</station_id>
		<state>AK</state>
            	<station_name>Huslia</station_name>
		<latitude>65.7</latitude>
		<longitude>-156.39</longitude>
            	<html_url>http://weather.noaa.gov/weather/current/PAHS.html</html_url>
            	<rss_url>http://weather.gov/xml/current_obs/PAHS.rss</rss_url>
            	<xml_url>http://weather.gov/xml/current_obs/PAHS.xml</xml_url>
	</station>

	<station>
		<station_id>PAHV</station_id>
		<state>AK</state>
            	<station_name>Healy River Airport</station_name>
		<latitude>63.89</latitude>
		<longitude>-149.02</longitude>
            	<html_url>http://weather.noaa.gov/weather/current/PAHV.html</html_url>
            	<rss_url>http://weather.gov/xml/current_obs/PAHV.rss</rss_url>
            	<xml_url>http://weather.gov/xml/current_obs/PAHV.xml</xml_url>
	</station>

	<station>
		<station_id>PAHY</station_id>
		<state>AK</state>
            	<station_name>Hydaburg Seaplane Base</station_name>
		<latitude>55.21</latitude>
		<longitude>-132.84</longitude>
            	<html_url>http://weather.noaa.gov/weather/current/PAHY.html</html_url>
            	<rss_url>http://weather.gov/xml/current_obs/PAHY.rss</rss_url>
            	<xml_url>http://weather.gov/xml/current_obs/PAHY.xml</xml_url>
	</station>

	<station>
		<station_id>PAHZ</station_id>
		<state>AK</state>
            	<station_name>Hayes River</station_name>
		<latitude>61.99</latitude>
		<longitude>-152.09</longitude>
            	<html_url>http://weather.noaa.gov/weather/current/PAHZ.html</html_url>
            	<rss_url>http://weather.gov/xml/current_obs/PAHZ.rss</rss_url>
            	<xml_url>http://weather.gov/xml/current_obs/PAHZ.xml</xml_url>
	</station>

	<station>
		<station_id>PAII</station_id>
		<state>AK</state>
            	<station_name>Egegik Automatic Weather Observing / Reporting Sys</station_name>
		<latitude>58.42</latitude>
		<longitude>-157.37</longitude>
            	<html_url>http://weather.noaa.gov/weather/current/PAII.html</html_url>
            	<rss_url>http://weather.gov/xml/current_obs/PAII.rss</rss_url>
            	<xml_url>http://weather.gov/xml/current_obs/PAII.xml</xml_url>
	</station>

	<station>
		<station_id>PAIL</station_id>
		<state>AK</state>
            	<station_name>Iliamna / Iliamna Airport</station_name>
		<latitude>59.76</latitude>
		<longitude>-154.92</longitude>
            	<html_url>http://weather.noaa.gov/weather/current/PAIL.html</html_url>
            	<rss_url>http://weather.gov/xml/current_obs/PAIL.rss</rss_url>
            	<xml_url>http://weather.gov/xml/current_obs/PAIL.xml</xml_url>
	</station>

	<station>
		<station_id>PAIM</station_id>
		<state>AK</state>
            	<station_name>Indian Mountain Airways Facilities Sector</station_name>
		<latitude>66</latitude>
		<longitude>-153.7</longitude>
            	<html_url>http://weather.noaa.gov/weather/current/PAIM.html</html_url>
            	<rss_url>http://weather.gov/xml/current_obs/PAIM.rss</rss_url>
            	<xml_url>http://weather.gov/xml/current_obs/PAIM.xml</xml_url>
	</station>

	<station>
		<station_id>PAIN</station_id>
		<state>AK</state>
            	<station_name>McKinley National Park Airport</station_name>
		<latitude>63.73</latitude>
		<longitude>-148.92</longitude>
            	<html_url>http://weather.noaa.gov/weather/current/PAIN.html</html_url>
            	<rss_url>http://weather.gov/xml/current_obs/PAIN.rss</rss_url>
            	<xml_url>http://weather.gov/xml/current_obs/PAIN.xml</xml_url>
	</station>

	<station>
		<station_id>PAJC</station_id>
		<state>AK</state>
            	<station_name>Chignik Airport</station_name>
		<latitude>56.31</latitude>
		<longitude>-158.37</longitude>
            	<html_url>http://weather.noaa.gov/weather/current/PAJC.html</html_url>
            	<rss_url>http://weather.gov/xml/current_obs/PAJC.rss</rss_url>
            	<xml_url>http://weather.gov/xml/current_obs/PAJC.xml</xml_url>
	</station>

	<station>
		<station_id>PAJN</station_id>
		<state>AK</state>
            	<station_name>Juneau International Airport</station_name>
		<latitude>58.38</latitude>
		<longitude>-134.58</longitude>
            	<html_url>http://weather.noaa.gov/weather/current/PAJN.html</html_url>
            	<rss_url>http://weather.gov/xml/current_obs/PAJN.rss</rss_url>
            	<xml_url>http://weather.gov/xml/current_obs/PAJN.xml</xml_url>
	</station>

	<station>
		<station_id>PAJV</station_id>
		<state>AK</state>
            	<station_name>Sutton</station_name>
		<latitude>61.72</latitude>
		<longitude>-148.89</longitude>
            	<html_url>http://weather.noaa.gov/weather/current/PAJV.html</html_url>
            	<rss_url>http://weather.gov/xml/current_obs/PAJV.rss</rss_url>
            	<xml_url>http://weather.gov/xml/current_obs/PAJV.xml</xml_url>
	</station>

	<station>
		<station_id>PAKK</station_id>
		<state>AK</state>
            	<station_name>Koyuk Airport</station_name>
		<latitude>64.93</latitude>
		<longitude>-165.15</longitude>
            	<html_url>http://weather.noaa.gov/weather/current/PAKK.html</html_url>
            	<rss_url>http://weather.gov/xml/current_obs/PAKK.rss</rss_url>
            	<xml_url>http://weather.gov/xml/current_obs/PAKK.xml</xml_url>
	</station>

	<station>
		<station_id>PAKN</station_id>
		<state>AK</state>
            	<station_name>King Salmon Airport</station_name>
		<latitude>58.68</latitude>
		<longitude>-156.65</longitude>
            	<html_url>http://weather.noaa.gov/weather/current/PAKN.html</html_url>
            	<rss_url>http://weather.gov/xml/current_obs/PAKN.rss</rss_url>
            	<xml_url>http://weather.gov/xml/current_obs/PAKN.xml</xml_url>
	</station>

	<station>
		<station_id>PAKP</station_id>
		<state>AK</state>
            	<station_name>Anaktuvuk Pass</station_name>
		<latitude>68.13</latitude>
		<longitude>-151.73</longitude>
            	<html_url>http://weather.noaa.gov/weather/current/PAKP.html</html_url>
            	<rss_url>http://weather.gov/xml/current_obs/PAKP.rss</rss_url>
            	<xml_url>http://weather.gov/xml/current_obs/PAKP.xml</xml_url>
	</station>

	<station>
		<station_id>PAKT</station_id>
		<state>AK</state>
            	<station_name>Ketchikan International Airport</station_name>
		<latitude>55.35</latitude>
		<longitude>-131.7</longitude>
            	<html_url>http://weather.noaa.gov/weather/current/PAKT.html</html_url>
            	<rss_url>http://weather.gov/xml/current_obs/PAKT.rss</rss_url>
            	<xml_url>http://weather.gov/xml/current_obs/PAKT.xml</xml_url>
	</station>

	<station>
		<station_id>PAKU</station_id>
		<state>AK</state>
            	<station_name>Kuparuk Airport</station_name>
		<latitude>70.317</latitude>
		<longitude>-149.583</longitude>
            	<html_url>http://weather.noaa.gov/weather/current/PAKU.html</html_url>
            	<rss_url>http://weather.gov/xml/current_obs/PAKU.rss</rss_url>
            	<xml_url>http://weather.gov/xml/current_obs/PAKU.xml</xml_url>
	</station>

	<station>
		<station_id>PAKV</station_id>
		<state>AK</state>
            	<station_name>Kaltag Airport</station_name>
		<latitude>64.33</latitude>
		<longitude>-158.75</longitude>
            	<html_url>http://weather.noaa.gov/weather/current/PAKV.html</html_url>
            	<rss_url>http://weather.gov/xml/current_obs/PAKV.rss</rss_url>
            	<xml_url>http://weather.gov/xml/current_obs/PAKV.xml</xml_url>
	</station>

	<station>
		<station_id>PAKW</station_id>
		<state>AK</state>
            	<station_name>Klawock Airport</station_name>
		<latitude>55.59</latitude>
		<longitude>-133.09</longitude>
            	<html_url>http://weather.noaa.gov/weather/current/PAKW.html</html_url>
            	<rss_url>http://weather.gov/xml/current_obs/PAKW.rss</rss_url>
            	<xml_url>http://weather.gov/xml/current_obs/PAKW.xml</xml_url>
	</station>

	<station>
		<station_id>PALH</station_id>
		<state>AK</state>
            	<station_name>Lake Hood Seaplane</station_name>
		<latitude>61.19</latitude>
		<longitude>-149.97</longitude>
            	<html_url>http://weather.noaa.gov/weather/current/PALH.html</html_url>
            	<rss_url>http://weather.gov/xml/current_obs/PALH.rss</rss_url>
            	<xml_url>http://weather.gov/xml/current_obs/PALH.xml</xml_url>
	</station>

	<station>
		<station_id>PALJ</station_id>
		<state>AK</state>
            	<station_name>Port Alsworth</station_name>
		<latitude>60.21</latitude>
		<longitude>-154.31</longitude>
            	<html_url>http://weather.noaa.gov/weather/current/PALJ.html</html_url>
            	<rss_url>http://weather.gov/xml/current_obs/PALJ.rss</rss_url>
            	<xml_url>http://weather.gov/xml/current_obs/PALJ.xml</xml_url>
	</station>

	<station>
		<station_id>PALK</station_id>
		<state>AK</state>
            	<station_name>Snowshoe Lake</station_name>
		<latitude>62.03</latitude>
		<longitude>-146.68</longitude>
            	<html_url>http://weather.noaa.gov/weather/current/PALK.html</html_url>
            	<rss_url>http://weather.gov/xml/current_obs/PALK.rss</rss_url>
            	<xml_url>http://weather.gov/xml/current_obs/PALK.xml</xml_url>
	</station>

	<station>
		<station_id>PALR</station_id>
		<state>AK</state>
            	<station_name>Chandalar Lake</station_name>
		<latitude>67.5</latitude>
		<longitude>-148.49</longitude>
            	<html_url>http://weather.noaa.gov/weather/current/PALR.html</html_url>
            	<rss_url>http://weather.gov/xml/current_obs/PALR.rss</rss_url>
            	<xml_url>http://weather.gov/xml/current_obs/PALR.xml</xml_url>
	</station>

	<station>
		<station_id>PALU</station_id>
		<state>AK</state>
            	<station_name>Cape Lisburne Airways Fac Sec</station_name>
		<latitude>68.89</latitude>
		<longitude>-166.14</longitude>
            	<html_url>http://weather.noaa.gov/weather/current/PALU.html</html_url>
            	<rss_url>http://weather.gov/xml/current_obs/PALU.rss</rss_url>
            	<xml_url>http://weather.gov/xml/current_obs/PALU.xml</xml_url>
	</station>

	<station>
		<station_id>PALV</station_id>
		<state>AK</state>
            	<station_name>Big River Lake</station_name>
		<latitude>60.82</latitude>
		<longitude>-152.31</longitude>
            	<html_url>http://weather.noaa.gov/weather/current/PALV.html</html_url>
            	<rss_url>http://weather.gov/xml/current_obs/PALV.rss</rss_url>
            	<xml_url>http://weather.gov/xml/current_obs/PALV.xml</xml_url>
	</station>

	<station>
		<station_id>PAMC</station_id>
		<state>AK</state>
            	<station_name>McGrath Airport</station_name>
		<latitude>62.95</latitude>
		<longitude>-155.61</longitude>
            	<html_url>http://weather.noaa.gov/weather/current/PAMC.html</html_url>
            	<rss_url>http://weather.gov/xml/current_obs/PAMC.rss</rss_url>
            	<xml_url>http://weather.gov/xml/current_obs/PAMC.xml</xml_url>
	</station>

	<station>
		<station_id>PAMD</station_id>
		<state>AK</state>
            	<station_name>Middleton Island, Ak</station_name>
		<latitude>59.44</latitude>
		<longitude>-146.33</longitude>
            	<html_url>http://weather.noaa.gov/weather/current/PAMD.html</html_url>
            	<rss_url>http://weather.gov/xml/current_obs/PAMD.rss</rss_url>
            	<xml_url>http://weather.gov/xml/current_obs/PAMD.xml</xml_url>
	</station>

	<station>
		<station_id>PAMH</station_id>
		<state>AK</state>
            	<station_name>Minchumina</station_name>
		<latitude>63.91</latitude>
		<longitude>-152.16</longitude>
            	<html_url>http://weather.noaa.gov/weather/current/PAMH.html</html_url>
            	<rss_url>http://weather.gov/xml/current_obs/PAMH.rss</rss_url>
            	<xml_url>http://weather.gov/xml/current_obs/PAMH.xml</xml_url>
	</station>

	<station>
		<station_id>PAML</station_id>
		<state>AK</state>
            	<station_name>Manley Hot Springs</station_name>
		<latitude>65</latitude>
		<longitude>-150.65</longitude>
            	<html_url>http://weather.noaa.gov/weather/current/PAML.html</html_url>
            	<rss_url>http://weather.gov/xml/current_obs/PAML.rss</rss_url>
            	<xml_url>http://weather.gov/xml/current_obs/PAML.xml</xml_url>
	</station>

	<station>
		<station_id>PAMM</station_id>
		<state>AK</state>
            	<station_name>Metlakatla Seaplane Base</station_name>
		<latitude>55.08</latitude>
		<longitude>-131.35</longitude>
            	<html_url>http://weather.noaa.gov/weather/current/PAMM.html</html_url>
            	<rss_url>http://weather.gov/xml/current_obs/PAMM.rss</rss_url>
            	<xml_url>http://weather.gov/xml/current_obs/PAMM.xml</xml_url>
	</station>

	<station>
		<station_id>PAMR</station_id>
		<state>AK</state>
            	<station_name>Merrill Field</station_name>
		<latitude>61.214</latitude>
		<longitude>-149.846</longitude>
            	<html_url>http://weather.noaa.gov/weather/current/PAMR.html</html_url>
            	<rss_url>http://weather.gov/xml/current_obs/PAMR.rss</rss_url>
            	<xml_url>http://weather.gov/xml/current_obs/PAMR.xml</xml_url>
	</station>

	<station>
		<station_id>PAMX</station_id>
		<state>AK</state>
            	<station_name>McCarthy</station_name>
		<latitude>61.44</latitude>
		<longitude>-142.94</longitude>
            	<html_url>http://weather.noaa.gov/weather/current/PAMX.html</html_url>
            	<rss_url>http://weather.gov/xml/current_obs/PAMX.rss</rss_url>
            	<xml_url>http://weather.gov/xml/current_obs/PAMX.xml</xml_url>
	</station>

	<station>
		<station_id>PAMY</station_id>
		<state>AK</state>
            	<station_name>Mekoryuk</station_name>
		<latitude>60.37</latitude>
		<longitude>-166.27</longitude>
            	<html_url>http://weather.noaa.gov/weather/current/PAMY.html</html_url>
            	<rss_url>http://weather.gov/xml/current_obs/PAMY.rss</rss_url>
            	<xml_url>http://weather.gov/xml/current_obs/PAMY.xml</xml_url>
	</station>

	<station>
		<station_id>PANC</station_id>
		<state>AK</state>
            	<station_name>Anchorage International Airport</station_name>
		<latitude>61.17</latitude>
		<longitude>-150</longitude>
            	<html_url>http://weather.noaa.gov/weather/current/PANC.html</html_url>
            	<rss_url>http://weather.gov/xml/current_obs/PANC.rss</rss_url>
            	<xml_url>http://weather.gov/xml/current_obs/PANC.xml</xml_url>
	</station>

	<station>
		<station_id>PANI</station_id>
		<state>AK</state>
            	<station_name>Aniak</station_name>
		<latitude>61.58</latitude>
		<longitude>-159.53</longitude>
            	<html_url>http://weather.noaa.gov/weather/current/PANI.html</html_url>
            	<rss_url>http://weather.gov/xml/current_obs/PANI.rss</rss_url>
            	<xml_url>http://weather.gov/xml/current_obs/PANI.xml</xml_url>
	</station>

	<station>
		<station_id>PANN</station_id>
		<state>AK</state>
            	<station_name>Nenana Municipal Airport</station_name>
		<latitude>64.5473</latitude>
		<longitude>-149.074</longitude>
            	<html_url>http://weather.noaa.gov/weather/current/PANN.html</html_url>
            	<rss_url>http://weather.gov/xml/current_obs/PANN.rss</rss_url>
            	<xml_url>http://weather.gov/xml/current_obs/PANN.xml</xml_url>
	</station>

	<station>
		<station_id>PANT</station_id>
		<state>AK</state>
            	<station_name>Annette Island</station_name>
		<latitude>55.04</latitude>
		<longitude>-131.57</longitude>
            	<html_url>http://weather.noaa.gov/weather/current/PANT.html</html_url>
            	<rss_url>http://weather.gov/xml/current_obs/PANT.rss</rss_url>
            	<xml_url>http://weather.gov/xml/current_obs/PANT.xml</xml_url>
	</station>

	<station>
		<station_id>PANV</station_id>
		<state>AK</state>
            	<station_name>Annik Airport</station_name>
		<latitude>62.65</latitude>
		<longitude>-160.18</longitude>
            	<html_url>http://weather.noaa.gov/weather/current/PANV.html</html_url>
            	<rss_url>http://weather.gov/xml/current_obs/PANV.rss</rss_url>
            	<xml_url>http://weather.gov/xml/current_obs/PANV.xml</xml_url>
	</station>

	<station>
		<station_id>PAOH</station_id>
		<state>AK</state>
            	<station_name>Hoonah Seaplane</station_name>
		<latitude>58.12</latitude>
		<longitude>-135.45</longitude>
            	<html_url>http://weather.noaa.gov/weather/current/PAOH.html</html_url>
            	<rss_url>http://weather.gov/xml/current_obs/PAOH.rss</rss_url>
            	<xml_url>http://weather.gov/xml/current_obs/PAOH.xml</xml_url>
	</station>

	<station>
		<station_id>PAOM</station_id>
		<state>AK</state>
            	<station_name>Nome Airport</station_name>
		<latitude>64.5</latitude>
		<longitude>-165.44</longitude>
            	<html_url>http://weather.noaa.gov/weather/current/PAOM.html</html_url>
            	<rss_url>http://weather.gov/xml/current_obs/PAOM.rss</rss_url>
            	<xml_url>http://weather.gov/xml/current_obs/PAOM.xml</xml_url>
	</station>

	<station>
		<station_id>PAOR</station_id>
		<state>AK</state>
            	<station_name>Northway Airport</station_name>
		<latitude>62.97</latitude>
		<longitude>-141.94</longitude>
            	<html_url>http://weather.noaa.gov/weather/current/PAOR.html</html_url>
            	<rss_url>http://weather.gov/xml/current_obs/PAOR.rss</rss_url>
            	<xml_url>http://weather.gov/xml/current_obs/PAOR.xml</xml_url>
	</station>

	<station>
		<station_id>PAOT</station_id>
		<state>AK</state>
            	<station_name>Kotzebue, Wien Memorial Airport</station_name>
		<latitude>66.87</latitude>
		<longitude>-162.64</longitude>
            	<html_url>http://weather.noaa.gov/weather/current/PAOT.html</html_url>
            	<rss_url>http://weather.gov/xml/current_obs/PAOT.rss</rss_url>
            	<xml_url>http://weather.gov/xml/current_obs/PAOT.xml</xml_url>
	</station>

	<station>
		<station_id>PAPB</station_id>
		<state>AK</state>
            	<station_name>St. George Airport</station_name>
		<latitude>56.35</latitude>
		<longitude>-169.4</longitude>
            	<html_url>http://weather.noaa.gov/weather/current/PAPB.html</html_url>
            	<rss_url>http://weather.gov/xml/current_obs/PAPB.rss</rss_url>
            	<xml_url>http://weather.gov/xml/current_obs/PAPB.xml</xml_url>
	</station>

	<station>
		<station_id>PAPG</station_id>
		<state>AK</state>
            	<station_name>Petersburg</station_name>
		<latitude>56.82</latitude>
		<longitude>-132.97</longitude>
            	<html_url>http://weather.noaa.gov/weather/current/PAPG.html</html_url>
            	<rss_url>http://weather.gov/xml/current_obs/PAPG.rss</rss_url>
            	<xml_url>http://weather.gov/xml/current_obs/PAPG.xml</xml_url>
	</station>

	<station>
		<station_id>PAPH</station_id>
		<state>AK</state>
            	<station_name>Port Heiden</station_name>
		<latitude>56.96</latitude>
		<longitude>-158.62</longitude>
            	<html_url>http://weather.noaa.gov/weather/current/PAPH.html</html_url>
            	<rss_url>http://weather.gov/xml/current_obs/PAPH.rss</rss_url>
            	<xml_url>http://weather.gov/xml/current_obs/PAPH.xml</xml_url>
	</station>

	<station>
		<station_id>PAPO</station_id>
		<state>AK</state>
            	<station_name>Point Hope Automatic Weather Observing / Reporting</station_name>
		<latitude>68.35</latitude>
		<longitude>-166.81</longitude>
            	<html_url>http://weather.noaa.gov/weather/current/PAPO.html</html_url>
            	<rss_url>http://weather.gov/xml/current_obs/PAPO.rss</rss_url>
            	<xml_url>http://weather.gov/xml/current_obs/PAPO.xml</xml_url>
	</station>

	<station>
		<station_id>PAPR</station_id>
		<state>AK</state>
            	<station_name>Prospect Creek Airport</station_name>
		<latitude>66.817</latitude>
		<longitude>-150.65</longitude>
            	<html_url>http://weather.noaa.gov/weather/current/PAPR.html</html_url>
            	<rss_url>http://weather.gov/xml/current_obs/PAPR.rss</rss_url>
            	<xml_url>http://weather.gov/xml/current_obs/PAPR.xml</xml_url>
	</station>

	<station>
		<station_id>PAPT</station_id>
		<state>AK</state>
            	<station_name>Puntilla</station_name>
		<latitude>62.1</latitude>
		<longitude>-152.75</longitude>
            	<html_url>http://weather.noaa.gov/weather/current/PAPT.html</html_url>
            	<rss_url>http://weather.gov/xml/current_obs/PAPT.rss</rss_url>
            	<xml_url>http://weather.gov/xml/current_obs/PAPT.xml</xml_url>
	</station>

	<station>
		<station_id>PAQT</station_id>
		<state>AK</state>
            	<station_name>Nuiqsut Airport</station_name>
		<latitude>70.21</latitude>
		<longitude>-151.01</longitude>
            	<html_url>http://weather.noaa.gov/weather/current/PAQT.html</html_url>
            	<rss_url>http://weather.gov/xml/current_obs/PAQT.rss</rss_url>
            	<xml_url>http://weather.gov/xml/current_obs/PAQT.xml</xml_url>
	</station>

	<station>
		<station_id>PARC</station_id>
		<state>AK</state>
            	<station_name>Arctic Village</station_name>
		<latitude>68.12</latitude>
		<longitude>-145.57</longitude>
            	<html_url>http://weather.noaa.gov/weather/current/PARC.html</html_url>
            	<rss_url>http://weather.gov/xml/current_obs/PARC.rss</rss_url>
            	<xml_url>http://weather.gov/xml/current_obs/PARC.xml</xml_url>
	</station>

	<station>
		<station_id>PARD</station_id>
		<state>AK</state>
            	<station_name>Red Dog Airport</station_name>
		<latitude>68.08</latitude>
		<longitude>-162.83</longitude>
            	<html_url>http://weather.noaa.gov/weather/current/PARD.html</html_url>
            	<rss_url>http://weather.gov/xml/current_obs/PARD.rss</rss_url>
            	<xml_url>http://weather.gov/xml/current_obs/PARD.xml</xml_url>
	</station>

	<station>
		<station_id>PARL</station_id>
		<state>AK</state>
            	<station_name>Central Airport</station_name>
		<latitude>65.57</latitude>
		<longitude>-144.77</longitude>
            	<html_url>http://weather.noaa.gov/weather/current/PARL.html</html_url>
            	<rss_url>http://weather.gov/xml/current_obs/PARL.rss</rss_url>
            	<xml_url>http://weather.gov/xml/current_obs/PARL.xml</xml_url>
	</station>

	<station>
		<station_id>PASA</station_id>
		<state>AK</state>
            	<station_name>Savoonga Airport</station_name>
		<latitude>63.69</latitude>
		<longitude>-170.5</longitude>
            	<html_url>http://weather.noaa.gov/weather/current/PASA.html</html_url>
            	<rss_url>http://weather.gov/xml/current_obs/PASA.rss</rss_url>
            	<xml_url>http://weather.gov/xml/current_obs/PASA.xml</xml_url>
	</station>

	<station>
		<station_id>PASC</station_id>
		<state>AK</state>
            	<station_name>Deadhorse Airport</station_name>
		<latitude>70.2</latitude>
		<longitude>-148.47</longitude>
            	<html_url>http://weather.noaa.gov/weather/current/PASC.html</html_url>
            	<rss_url>http://weather.gov/xml/current_obs/PASC.rss</rss_url>
            	<xml_url>http://weather.gov/xml/current_obs/PASC.xml</xml_url>
	</station>

	<station>
		<station_id>PASD</station_id>
		<state>AK</state>
            	<station_name>Sand Point</station_name>
		<latitude>55.32</latitude>
		<longitude>-160.52</longitude>
            	<html_url>http://weather.noaa.gov/weather/current/PASD.html</html_url>
            	<rss_url>http://weather.gov/xml/current_obs/PASD.rss</rss_url>
            	<xml_url>http://weather.gov/xml/current_obs/PASD.xml</xml_url>
	</station>

	<station>
		<station_id>PASH</station_id>
		<state>AK</state>
            	<station_name>Shishmaref Automatic Wx Obs</station_name>
		<latitude>66.27</latitude>
		<longitude>-166.05</longitude>
            	<html_url>http://weather.noaa.gov/weather/current/PASH.html</html_url>
            	<rss_url>http://weather.gov/xml/current_obs/PASH.rss</rss_url>
            	<xml_url>http://weather.gov/xml/current_obs/PASH.xml</xml_url>
	</station>

	<station>
		<station_id>PASI</station_id>
		<state>AK</state>
            	<station_name>Sitka</station_name>
		<latitude>57.07</latitude>
		<longitude>-135.35</longitude>
            	<html_url>http://weather.noaa.gov/weather/current/PASI.html</html_url>
            	<rss_url>http://weather.gov/xml/current_obs/PASI.rss</rss_url>
            	<xml_url>http://weather.gov/xml/current_obs/PASI.xml</xml_url>
	</station>

	<station>
		<station_id>PASK</station_id>
		<state>AK</state>
            	<station_name>Selawik</station_name>
		<latitude>66.62</latitude>
		<longitude>-160</longitude>
            	<html_url>http://weather.noaa.gov/weather/current/PASK.html</html_url>
            	<rss_url>http://weather.gov/xml/current_obs/PASK.rss</rss_url>
            	<xml_url>http://weather.gov/xml/current_obs/PASK.xml</xml_url>
	</station>

	<station>
		<station_id>PASL</station_id>
		<state>AK</state>
            	<station_name>Sleetmute</station_name>
		<latitude>61.72</latitude>
		<longitude>-157.15</longitude>
            	<html_url>http://weather.noaa.gov/weather/current/PASL.html</html_url>
            	<rss_url>http://weather.gov/xml/current_obs/PASL.rss</rss_url>
            	<xml_url>http://weather.gov/xml/current_obs/PASL.xml</xml_url>
	</station>

	<station>
		<station_id>PASM</station_id>
		<state>AK</state>
            	<station_name>St. Marys Airport</station_name>
		<latitude>62.07</latitude>
		<longitude>-163.3</longitude>
            	<html_url>http://weather.noaa.gov/weather/current/PASM.html</html_url>
            	<rss_url>http://weather.gov/xml/current_obs/PASM.rss</rss_url>
            	<xml_url>http://weather.gov/xml/current_obs/PASM.xml</xml_url>
	</station>

	<station>
		<station_id>PASN</station_id>
		<state>AK</state>
            	<station_name>St. Paul Is.</station_name>
		<latitude>57.15</latitude>
		<longitude>-170.22</longitude>
            	<html_url>http://weather.noaa.gov/weather/current/PASN.html</html_url>
            	<rss_url>http://weather.gov/xml/current_obs/PASN.rss</rss_url>
            	<xml_url>http://weather.gov/xml/current_obs/PASN.xml</xml_url>
	</station>

	<station>
		<station_id>PASO</station_id>
		<state>AK</state>
            	<station_name>Seldovia Airport</station_name>
		<latitude>59.44</latitude>
		<longitude>-151.7</longitude>
            	<html_url>http://weather.noaa.gov/weather/current/PASO.html</html_url>
            	<rss_url>http://weather.gov/xml/current_obs/PASO.rss</rss_url>
            	<xml_url>http://weather.gov/xml/current_obs/PASO.xml</xml_url>
	</station>

	<station>
		<station_id>PASP</station_id>
		<state>AK</state>
            	<station_name>Sheep Mountain Airport</station_name>
		<latitude>61.82</latitude>
		<longitude>-147.5</longitude>
            	<html_url>http://weather.noaa.gov/weather/current/PASP.html</html_url>
            	<rss_url>http://weather.gov/xml/current_obs/PASP.rss</rss_url>
            	<xml_url>http://weather.gov/xml/current_obs/PASP.xml</xml_url>
	</station>

	<station>
		<station_id>PASV</station_id>
		<state>AK</state>
            	<station_name>Sparrevohn</station_name>
		<latitude>61.1</latitude>
		<longitude>-155.567</longitude>
            	<html_url>http://weather.noaa.gov/weather/current/PASV.html</html_url>
            	<rss_url>http://weather.gov/xml/current_obs/PASV.rss</rss_url>
            	<xml_url>http://weather.gov/xml/current_obs/PASV.xml</xml_url>
	</station>

	<station>
		<station_id>PASW</station_id>
		<state>AK</state>
            	<station_name>Skwentna</station_name>
		<latitude>61.97</latitude>
		<longitude>-151.18</longitude>
            	<html_url>http://weather.noaa.gov/weather/current/PASW.html</html_url>
            	<rss_url>http://weather.gov/xml/current_obs/PASW.rss</rss_url>
            	<xml_url>http://weather.gov/xml/current_obs/PASW.xml</xml_url>
	</station>

	<station>
		<station_id>PASX</station_id>
		<state>AK</state>
            	<station_name>Soldotna</station_name>
		<latitude>60.48</latitude>
		<longitude>-151.03</longitude>
            	<html_url>http://weather.noaa.gov/weather/current/PASX.html</html_url>
            	<rss_url>http://weather.gov/xml/current_obs/PASX.rss</rss_url>
            	<xml_url>http://weather.gov/xml/current_obs/PASX.xml</xml_url>
	</station>

	<station>
		<station_id>PASY</station_id>
		<state>AK</state>
            	<station_name>Shemya AFB</station_name>
		<latitude>52.72</latitude>
		<longitude>174.12</longitude>
            	<html_url>http://weather.noaa.gov/weather/current/PASY.html</html_url>
            	<rss_url>http://weather.gov/xml/current_obs/PASY.rss</rss_url>
            	<xml_url>http://weather.gov/xml/current_obs/PASY.xml</xml_url>
	</station>

	<station>
		<station_id>PATA</station_id>
		<state>AK</state>
            	<station_name>Tanana, Calhoun Memorial Airport</station_name>
		<latitude>65.17</latitude>
		<longitude>-152.1</longitude>
            	<html_url>http://weather.noaa.gov/weather/current/PATA.html</html_url>
            	<rss_url>http://weather.gov/xml/current_obs/PATA.rss</rss_url>
            	<xml_url>http://weather.gov/xml/current_obs/PATA.xml</xml_url>
	</station>

	<station>
		<station_id>PATC</station_id>
		<state>AK</state>
            	<station_name>Tin City Airways Facilities Sector</station_name>
		<latitude>65.57</latitude>
		<longitude>-167.92</longitude>
            	<html_url>http://weather.noaa.gov/weather/current/PATC.html</html_url>
            	<rss_url>http://weather.gov/xml/current_obs/PATC.rss</rss_url>
            	<xml_url>http://weather.gov/xml/current_obs/PATC.xml</xml_url>
	</station>

	<station>
		<station_id>PATG</station_id>
		<state>AK</state>
            	<station_name>Togiak Airport</station_name>
		<latitude>59.05</latitude>
		<longitude>-160.41</longitude>
            	<html_url>http://weather.noaa.gov/weather/current/PATG.html</html_url>
            	<rss_url>http://weather.gov/xml/current_obs/PATG.rss</rss_url>
            	<xml_url>http://weather.gov/xml/current_obs/PATG.xml</xml_url>
	</station>

	<station>
		<station_id>PATK</station_id>
		<state>AK</state>
            	<station_name>Talkeetna</station_name>
		<latitude>62.3</latitude>
		<longitude>-150.1</longitude>
            	<html_url>http://weather.noaa.gov/weather/current/PATK.html</html_url>
            	<rss_url>http://weather.gov/xml/current_obs/PATK.rss</rss_url>
            	<xml_url>http://weather.gov/xml/current_obs/PATK.xml</xml_url>
	</station>

	<station>
		<station_id>PATO</station_id>
		<state>AK</state>
            	<station_name>Portage Glacier</station_name>
		<latitude>60.783</latitude>
		<longitude>-148.833</longitude>
            	<html_url>http://weather.noaa.gov/weather/current/PATO.html</html_url>
            	<rss_url>http://weather.gov/xml/current_obs/PATO.rss</rss_url>
            	<xml_url>http://weather.gov/xml/current_obs/PATO.xml</xml_url>
	</station>

	<station>
		<station_id>PATW</station_id>
		<state>AK</state>
            	<station_name>Cantwell</station_name>
		<latitude>63.41</latitude>
		<longitude>-148.95</longitude>
            	<html_url>http://weather.noaa.gov/weather/current/PATW.html</html_url>
            	<rss_url>http://weather.gov/xml/current_obs/PATW.rss</rss_url>
            	<xml_url>http://weather.gov/xml/current_obs/PATW.xml</xml_url>
	</station>

	<station>
		<station_id>PAUN</station_id>
		<state>AK</state>
            	<station_name>Unalakleet</station_name>
		<latitude>63.89</latitude>
		<longitude>-160.81</longitude>
            	<html_url>http://weather.noaa.gov/weather/current/PAUN.html</html_url>
            	<rss_url>http://weather.gov/xml/current_obs/PAUN.rss</rss_url>
            	<xml_url>http://weather.gov/xml/current_obs/PAUN.xml</xml_url>
	</station>

	<station>
		<station_id>PAUO</station_id>
		<state>AK</state>
            	<station_name>Willow Airport</station_name>
		<latitude>61.76</latitude>
		<longitude>-150.06</longitude>
            	<html_url>http://weather.noaa.gov/weather/current/PAUO.html</html_url>
            	<rss_url>http://weather.gov/xml/current_obs/PAUO.rss</rss_url>
            	<xml_url>http://weather.gov/xml/current_obs/PAUO.xml</xml_url>
	</station>

	<station>
		<station_id>PAVD</station_id>
		<state>AK</state>
            	<station_name>Valdez 2</station_name>
		<latitude>61.13</latitude>
		<longitude>-146.25</longitude>
            	<html_url>http://weather.noaa.gov/weather/current/PAVD.html</html_url>
            	<rss_url>http://weather.gov/xml/current_obs/PAVD.rss</rss_url>
            	<xml_url>http://weather.gov/xml/current_obs/PAVD.xml</xml_url>
	</station>

	<station>
		<station_id>PAVL</station_id>
		<state>AK</state>
            	<station_name>Kivalina Airport</station_name>
		<latitude>67.73</latitude>
		<longitude>-164.55</longitude>
            	<html_url>http://weather.noaa.gov/weather/current/PAVL.html</html_url>
            	<rss_url>http://weather.gov/xml/current_obs/PAVL.rss</rss_url>
            	<xml_url>http://weather.gov/xml/current_obs/PAVL.xml</xml_url>
	</station>

	<station>
		<station_id>PAVW</station_id>
		<state>AK</state>
            	<station_name>Valdez Weather Station Office</station_name>
		<latitude>61.13</latitude>
		<longitude>-146.35</longitude>
            	<html_url>http://weather.noaa.gov/weather/current/PAVW.html</html_url>
            	<rss_url>http://weather.gov/xml/current_obs/PAVW.rss</rss_url>
            	<xml_url>http://weather.gov/xml/current_obs/PAVW.xml</xml_url>
	</station>

	<station>
		<station_id>PAWD</station_id>
		<state>AK</state>
            	<station_name>Seward Airport</station_name>
		<latitude>60.12</latitude>
		<longitude>-149.45</longitude>
            	<html_url>http://weather.noaa.gov/weather/current/PAWD.html</html_url>
            	<rss_url>http://weather.gov/xml/current_obs/PAWD.rss</rss_url>
            	<xml_url>http://weather.gov/xml/current_obs/PAWD.xml</xml_url>
	</station>

	<station>
		<station_id>PAWG</station_id>
		<state>AK</state>
            	<station_name>Wrangell</station_name>
		<latitude>56.48</latitude>
		<longitude>-132.37</longitude>
            	<html_url>http://weather.noaa.gov/weather/current/PAWG.html</html_url>
            	<rss_url>http://weather.gov/xml/current_obs/PAWG.rss</rss_url>
            	<xml_url>http://weather.gov/xml/current_obs/PAWG.xml</xml_url>
	</station>

	<station>
		<station_id>PAWI</station_id>
		<state>AK</state>
            	<station_name>Wainwright Airport</station_name>
		<latitude>70.62</latitude>
		<longitude>-159.86</longitude>
            	<html_url>http://weather.noaa.gov/weather/current/PAWI.html</html_url>
            	<rss_url>http://weather.gov/xml/current_obs/PAWI.rss</rss_url>
            	<xml_url>http://weather.gov/xml/current_obs/PAWI.xml</xml_url>
	</station>

	<station>
		<station_id>PAWN</station_id>
		<state>AK</state>
            	<station_name>Noatak</station_name>
		<latitude>67.57</latitude>
		<longitude>-162.98</longitude>
            	<html_url>http://weather.noaa.gov/weather/current/PAWN.html</html_url>
            	<rss_url>http://weather.gov/xml/current_obs/PAWN.rss</rss_url>
            	<xml_url>http://weather.gov/xml/current_obs/PAWN.xml</xml_url>
	</station>

	<station>
		<station_id>PAWR</station_id>
		<state>AK</state>
            	<station_name>Whittier</station_name>
		<latitude>60.77</latitude>
		<longitude>-148.69</longitude>
            	<html_url>http://weather.noaa.gov/weather/current/PAWR.html</html_url>
            	<rss_url>http://weather.gov/xml/current_obs/PAWR.rss</rss_url>
            	<xml_url>http://weather.gov/xml/current_obs/PAWR.xml</xml_url>
	</station>

	<station>
		<station_id>PAWS</station_id>
		<state>AK</state>
            	<station_name>Wasilla Airport</station_name>
		<latitude>61.58</latitude>
		<longitude>-149.45</longitude>
            	<html_url>http://weather.noaa.gov/weather/current/PAWS.html</html_url>
            	<rss_url>http://weather.gov/xml/current_obs/PAWS.rss</rss_url>
            	<xml_url>http://weather.gov/xml/current_obs/PAWS.xml</xml_url>
	</station>

	<station>
		<station_id>PAXK</station_id>
		<state>AK</state>
            	<station_name>Paxson</station_name>
		<latitude>63.033</latitude>
		<longitude>-145.5</longitude>
            	<html_url>http://weather.noaa.gov/weather/current/PAXK.html</html_url>
            	<rss_url>http://weather.gov/xml/current_obs/PAXK.rss</rss_url>
            	<xml_url>http://weather.gov/xml/current_obs/PAXK.xml</xml_url>
	</station>

	<station>
		<station_id>PAYA</station_id>
		<state>AK</state>
            	<station_name>Yakutat</station_name>
		<latitude>59.52</latitude>
		<longitude>-139.67</longitude>
            	<html_url>http://weather.noaa.gov/weather/current/PAYA.html</html_url>
            	<rss_url>http://weather.gov/xml/current_obs/PAYA.rss</rss_url>
            	<xml_url>http://weather.gov/xml/current_obs/PAYA.xml</xml_url>
	</station>

	<station>
		<station_id>PAZK</station_id>
		<state>AK</state>
            	<station_name>Eureka</station_name>
		<latitude>61.93</latitude>
		<longitude>-147.17</longitude>
            	<html_url>http://weather.noaa.gov/weather/current/PAZK.html</html_url>
            	<rss_url>http://weather.gov/xml/current_obs/PAZK.rss</rss_url>
            	<xml_url>http://weather.gov/xml/current_obs/PAZK.xml</xml_url>
	</station>

	<station>
		<station_id>PFYU</station_id>
		<state>AK</state>
            	<station_name>Fort Yukon</station_name>
		<latitude>66.57</latitude>
		<longitude>-145.27</longitude>
            	<html_url>http://weather.noaa.gov/weather/current/PFYU.html</html_url>
            	<rss_url>http://weather.gov/xml/current_obs/PFYU.rss</rss_url>
            	<xml_url>http://weather.gov/xml/current_obs/PFYU.xml</xml_url>
	</station>

	<station>
		<station_id>PPIZ</station_id>
		<state>AK</state>
            	<station_name>Point Lay LRRS</station_name>
		<latitude>69.73</latitude>
		<longitude>-163.02</longitude>
            	<html_url>http://weather.noaa.gov/weather/current/PPIZ.html</html_url>
            	<rss_url>http://weather.gov/xml/current_obs/PPIZ.rss</rss_url>
            	<xml_url>http://weather.gov/xml/current_obs/PPIZ.xml</xml_url>
	</station>

	<station>
		<station_id>46001</station_id>
		<state>AK</state>
            	<station_name>GULF OF AK 175NM South East of Kodiak</station_name>
		<latitude>56.3</latitude>
		<longitude>-148.021</longitude>
            	<html_url>http://weather.noaa.gov/weather/current/46001.html</html_url>
            	<rss_url>http://weather.gov/xml/current_obs/46001.rss</rss_url>
            	<xml_url>http://weather.gov/xml/current_obs/46001.xml</xml_url>
	</station>

	<station>
		<station_id>46035</station_id>
		<state>AK</state>
            	<station_name>BERING SEA 310 NM North of Adak</station_name>
		<latitude>57.067</latitude>
		<longitude>-177.75</longitude>
            	<html_url>http://weather.noaa.gov/weather/current/46035.html</html_url>
            	<rss_url>http://weather.gov/xml/current_obs/46035.rss</rss_url>
            	<xml_url>http://weather.gov/xml/current_obs/46035.xml</xml_url>
	</station>

	<station>
		<station_id>46060</station_id>
		<state>AK</state>
            	<station_name>West Orca Bay 36NM South Southwest of Valdez</station_name>
		<latitude>60.599</latitude>
		<longitude>-146.838</longitude>
            	<html_url>http://weather.noaa.gov/weather/current/46060.html</html_url>
            	<rss_url>http://weather.gov/xml/current_obs/46060.rss</rss_url>
            	<xml_url>http://weather.gov/xml/current_obs/46060.xml</xml_url>
	</station>

	<station>
		<station_id>46061</station_id>
		<state>AK</state>
            	<station_name>Seal Rocks 55NM South of Valdez</station_name>
		<latitude>60.218</latitude>
		<longitude>-146.825</longitude>
            	<html_url>http://weather.noaa.gov/weather/current/46061.html</html_url>
            	<rss_url>http://weather.gov/xml/current_obs/46061.rss</rss_url>
            	<xml_url>http://weather.gov/xml/current_obs/46061.xml</xml_url>
	</station>

	<station>
		<station_id>46066</station_id>
		<state>AK</state>
            	<station_name>S Aleutians 380NM Southwest of Kodiak</station_name>
		<latitude>52.696</latitude>
		<longitude>-154.984</longitude>
            	<html_url>http://weather.noaa.gov/weather/current/46066.html</html_url>
            	<rss_url>http://weather.gov/xml/current_obs/46066.rss</rss_url>
            	<xml_url>http://weather.gov/xml/current_obs/46066.xml</xml_url>
	</station>

	<station>
		<station_id>46075</station_id>
		<state>AK</state>
            	<station_name>Shumagin Islands</station_name>
		<latitude>53.926</latitude>
		<longitude>-160.806</longitude>
            	<html_url>http://weather.noaa.gov/weather/current/46075.html</html_url>
            	<rss_url>http://weather.gov/xml/current_obs/46075.rss</rss_url>
            	<xml_url>http://weather.gov/xml/current_obs/46075.xml</xml_url>
	</station>

	<station>
		<station_id>46077</station_id>
		<state>AK</state>
            	<station_name>Shelikof Strait</station_name>
		<latitude>57.92</latitude>
		<longitude>-154.254</longitude>
            	<html_url>http://weather.noaa.gov/weather/current/46077.html</html_url>
            	<rss_url>http://weather.gov/xml/current_obs/46077.rss</rss_url>
            	<xml_url>http://weather.gov/xml/current_obs/46077.xml</xml_url>
	</station>

	<station>
		<station_id>46080</station_id>
		<state>AK</state>
            	<station_name>Northwest Gulf 57NM East of Kodiak</station_name>
		<latitude>58.035</latitude>
		<longitude>-149.994</longitude>
            	<html_url>http://weather.noaa.gov/weather/current/46080.html</html_url>
            	<rss_url>http://weather.gov/xml/current_obs/46080.rss</rss_url>
            	<xml_url>http://weather.gov/xml/current_obs/46080.xml</xml_url>
	</station>

	<station>
		<station_id>46082</station_id>
		<state>AK</state>
            	<station_name>Cape Suckling 84NM Southeast of Cordova</station_name>
		<latitude>59.688</latitude>
		<longitude>-143.399</longitude>
            	<html_url>http://weather.noaa.gov/weather/current/46082.html</html_url>
            	<rss_url>http://weather.gov/xml/current_obs/46082.rss</rss_url>
            	<xml_url>http://weather.gov/xml/current_obs/46082.xml</xml_url>
	</station>

	<station>
		<station_id>46083</station_id>
		<state>AK</state>
            	<station_name>Fairweather Grounds 92NM Southeast of Yakutat</station_name>
		<latitude>58.243</latitude>
		<longitude>-137.993</longitude>
            	<html_url>http://weather.noaa.gov/weather/current/46083.html</html_url>
            	<rss_url>http://weather.gov/xml/current_obs/46083.rss</rss_url>
            	<xml_url>http://weather.gov/xml/current_obs/46083.xml</xml_url>
	</station>

	<station>
		<station_id>46402</station_id>
		<state>AK</state>
            	<station_name>240 NM South of Dutch Harbor</station_name>
		<latitude>51.069</latitude>
		<longitude>-164.011</longitude>
            	<html_url>http://weather.noaa.gov/weather/current/46402.html</html_url>
            	<rss_url>http://weather.gov/xml/current_obs/46402.rss</rss_url>
            	<xml_url>http://weather.gov/xml/current_obs/46402.xml</xml_url>
	</station>

	<station>
		<station_id>46403</station_id>
		<state>AK</state>
            	<station_name>230 NM Southeast of Shumagin Island</station_name>
		<latitude>52.65</latitude>
		<longitude>-156.94</longitude>
            	<html_url>http://weather.noaa.gov/weather/current/46403.html</html_url>
            	<rss_url>http://weather.gov/xml/current_obs/46403.rss</rss_url>
            	<xml_url>http://weather.gov/xml/current_obs/46403.xml</xml_url>
	</station>

	<station>
		<station_id>46409</station_id>
		<state>AK</state>
            	<station_name>240 NM Southeast of Kodiak</station_name>
		<latitude>55.3</latitude>
		<longitude>-148.5</longitude>
            	<html_url>http://weather.noaa.gov/weather/current/46409.html</html_url>
            	<rss_url>http://weather.gov/xml/current_obs/46409.rss</rss_url>
            	<xml_url>http://weather.gov/xml/current_obs/46409.xml</xml_url>
	</station>

	<station>
		<station_id>AMAA2</station_id>
		<state>AK</state>
            	<station_name>East Amatuli Station Light</station_name>
		<latitude>58.915</latitude>
		<longitude>-151.952</longitude>
            	<html_url>http://weather.noaa.gov/weather/current/AMAA2.html</html_url>
            	<rss_url>http://weather.gov/xml/current_obs/AMAA2.rss</rss_url>
            	<xml_url>http://weather.gov/xml/current_obs/AMAA2.xml</xml_url>
	</station>

	<station>
		<station_id>AUGA2</station_id>
		<state>AK</state>
            	<station_name>Augustine Island</station_name>
		<latitude>59.378</latitude>
		<longitude>-153.348</longitude>
            	<html_url>http://weather.noaa.gov/weather/current/AUGA2.html</html_url>
            	<rss_url>http://weather.gov/xml/current_obs/AUGA2.rss</rss_url>
            	<xml_url>http://weather.gov/xml/current_obs/AUGA2.xml</xml_url>
	</station>

	<station>
		<station_id>BLIA2</station_id>
		<state>AK</state>
            	<station_name>Bligh Reef Light</station_name>
		<latitude>60.84</latitude>
		<longitude>-146.88</longitude>
            	<html_url>http://weather.noaa.gov/weather/current/BLIA2.html</html_url>
            	<rss_url>http://weather.gov/xml/current_obs/BLIA2.rss</rss_url>
            	<xml_url>http://weather.gov/xml/current_obs/BLIA2.xml</xml_url>
	</station>

	<station>
		<station_id>DRFA2</station_id>
		<state>AK</state>
            	<station_name>Drift River Terminal</station_name>
		<latitude>60.553</latitude>
		<longitude>-152.137</longitude>
            	<html_url>http://weather.noaa.gov/weather/current/DRFA2.html</html_url>
            	<rss_url>http://weather.gov/xml/current_obs/DRFA2.rss</rss_url>
            	<xml_url>http://weather.gov/xml/current_obs/DRFA2.xml</xml_url>
	</station>

	<station>
		<station_id>FFIA2</station_id>
		<state>AK</state>
            	<station_name>Five Finger</station_name>
		<latitude>57.272</latitude>
		<longitude>-133.63</longitude>
            	<html_url>http://weather.noaa.gov/weather/current/FFIA2.html</html_url>
            	<rss_url>http://weather.gov/xml/current_obs/FFIA2.rss</rss_url>
            	<xml_url>http://weather.gov/xml/current_obs/FFIA2.xml</xml_url>
	</station>

	<station>
		<station_id>FILA2</station_id>
		<state>AK</state>
            	<station_name>Flat Island Light</station_name>
		<latitude>59.332</latitude>
		<longitude>-151.995</longitude>
            	<html_url>http://weather.noaa.gov/weather/current/FILA2.html</html_url>
            	<rss_url>http://weather.gov/xml/current_obs/FILA2.rss</rss_url>
            	<xml_url>http://weather.gov/xml/current_obs/FILA2.xml</xml_url>
	</station>

	<station>
		<station_id>MRKA2</station_id>
		<state>AK</state>
            	<station_name>Middle Rock Light</station_name>
		<latitude>61.082</latitude>
		<longitude>-146.662</longitude>
            	<html_url>http://weather.noaa.gov/weather/current/MRKA2.html</html_url>
            	<rss_url>http://weather.gov/xml/current_obs/MRKA2.rss</rss_url>
            	<xml_url>http://weather.gov/xml/current_obs/MRKA2.xml</xml_url>
	</station>

	<station>
		<station_id>PILA2</station_id>
		<state>AK</state>
            	<station_name>Pilot Rock</station_name>
		<latitude>59.742</latitude>
		<longitude>-149.47</longitude>
            	<html_url>http://weather.noaa.gov/weather/current/PILA2.html</html_url>
            	<rss_url>http://weather.gov/xml/current_obs/PILA2.rss</rss_url>
            	<xml_url>http://weather.gov/xml/current_obs/PILA2.xml</xml_url>
	</station>

	<station>
		<station_id>POTA2</station_id>
		<state>AK</state>
            	<station_name>Potato Point</station_name>
		<latitude>61.06</latitude>
		<longitude>-146.7</longitude>
            	<html_url>http://weather.noaa.gov/weather/current/POTA2.html</html_url>
            	<rss_url>http://weather.gov/xml/current_obs/POTA2.rss</rss_url>
            	<xml_url>http://weather.gov/xml/current_obs/POTA2.xml</xml_url>
	</station>

	<station>
		<station_id>ADKA2</station_id>
		<state>AK</state>
            	<station_name>9461380 - Adak Island</station_name>
		<latitude>51.863</latitude>
		<longitude>-176.632</longitude>
            	<html_url>http://weather.noaa.gov/weather/current/ADKA2.html</html_url>
            	<rss_url>http://weather.gov/xml/current_obs/ADKA2.rss</rss_url>
            	<xml_url>http://weather.gov/xml/current_obs/ADKA2.xml</xml_url>
	</station>

	<station>
		<station_id>ANTA2</station_id>
		<state>AK</state>
            	<station_name>9455920 - Anchorage</station_name>
		<latitude>61.238</latitude>
		<longitude>-149.89</longitude>
            	<html_url>http://weather.noaa.gov/weather/current/ANTA2.html</html_url>
            	<rss_url>http://weather.gov/xml/current_obs/ANTA2.rss</rss_url>
            	<xml_url>http://weather.gov/xml/current_obs/ANTA2.xml</xml_url>
	</station>

	<station>
		<station_id>NKTA2</station_id>
		<state>AK</state>
            	<station_name>9455760 - Nikiski</station_name>
		<latitude>60.683</latitude>
		<longitude>-151.398</longitude>
            	<html_url>http://weather.noaa.gov/weather/current/NKTA2.html</html_url>
            	<rss_url>http://weather.gov/xml/current_obs/NKTA2.rss</rss_url>
            	<xml_url>http://weather.gov/xml/current_obs/NKTA2.xml</xml_url>
	</station>

	<station>
		<station_id>NMTA2</station_id>
		<state>AK</state>
            	<station_name>9468756 - Nome, Norton Sound</station_name>
		<latitude>64.5</latitude>
		<longitude>-165.43</longitude>
            	<html_url>http://weather.noaa.gov/weather/current/NMTA2.html</html_url>
            	<rss_url>http://weather.gov/xml/current_obs/NMTA2.rss</rss_url>
            	<xml_url>http://weather.gov/xml/current_obs/NMTA2.xml</xml_url>
	</station>

	<station>
		<station_id>PRDA2</station_id>
		<state>AK</state>
            	<station_name>9497645 - Prudhoe Bay</station_name>
		<latitude>70.4</latitude>
		<longitude>-148.527</longitude>
            	<html_url>http://weather.noaa.gov/weather/current/PRDA2.html</html_url>
            	<rss_url>http://weather.gov/xml/current_obs/PRDA2.rss</rss_url>
            	<xml_url>http://weather.gov/xml/current_obs/PRDA2.xml</xml_url>
	</station>

	<station>
		<station_id>RDDA2</station_id>
		<state>AK</state>
            	<station_name>9491094 - Red Dog Dock</station_name>
		<latitude>67.577</latitude>
		<longitude>-164.065</longitude>
            	<html_url>http://weather.noaa.gov/weather/current/RDDA2.html</html_url>
            	<rss_url>http://weather.gov/xml/current_obs/RDDA2.rss</rss_url>
            	<xml_url>http://weather.gov/xml/current_obs/RDDA2.xml</xml_url>
	</station>

	<station>
		<station_id>46410</station_id>
		<state>AK</state>
            	<station_name>330 NM Southeast of Anchorage</station_name>
		<latitude>57.634</latitude>
		<longitude>-143.804</longitude>
            	<html_url>http://weather.noaa.gov/weather/current/46410.html</html_url>
            	<rss_url>http://weather.gov/xml/current_obs/46410.rss</rss_url>
            	<xml_url>http://weather.gov/xml/current_obs/46410.xml</xml_url>
	</station>

	<station>
		<station_id>46413</station_id>
		<state>AK</state>
            	<station_name>East of ADAK</station_name>
		<latitude>48.672</latitude>
		<longitude>-174.593</longitude>
            	<html_url>http://weather.noaa.gov/weather/current/46413.html</html_url>
            	<rss_url>http://weather.gov/xml/current_obs/46413.rss</rss_url>
            	<xml_url>http://weather.gov/xml/current_obs/46413.xml</xml_url>
	</station>

	<station>
		<station_id>PRTA2</station_id>
		<state>AK</state>
            	<station_name>Point Retreat</station_name>
		<latitude>58.412</latitude>
		<longitude>-134.953</longitude>
            	<html_url>http://weather.noaa.gov/weather/current/PRTA2.html</html_url>
            	<rss_url>http://weather.gov/xml/current_obs/PRTA2.rss</rss_url>
            	<xml_url>http://weather.gov/xml/current_obs/PRTA2.xml</xml_url>
	</station>

	<station>
		<station_id>EROA2</station_id>
		<state>AK</state>
            	<station_name>Eldred Rock</station_name>
		<latitude>58.971</latitude>
		<longitude>-135.22</longitude>
            	<html_url>http://weather.noaa.gov/weather/current/EROA2.html</html_url>
            	<rss_url>http://weather.gov/xml/current_obs/EROA2.rss</rss_url>
            	<xml_url>http://weather.gov/xml/current_obs/EROA2.xml</xml_url>
	</station>

	<station>
		<station_id>SISA2</station_id>
		<state>AK</state>
            	<station_name>Sisters Island</station_name>
		<latitude>58.171</latitude>
		<longitude>-135.256</longitude>
            	<html_url>http://weather.noaa.gov/weather/current/SISA2.html</html_url>
            	<rss_url>http://weather.gov/xml/current_obs/SISA2.rss</rss_url>
            	<xml_url>http://weather.gov/xml/current_obs/SISA2.xml</xml_url>
	</station>

	<station>
		<station_id>CDEA2</station_id>
		<state>AK</state>
            	<station_name>Cape Decision</station_name>
		<latitude>56.002</latitude>
		<longitude>-134.133</longitude>
            	<html_url>http://weather.noaa.gov/weather/current/CDEA2.html</html_url>
            	<rss_url>http://weather.gov/xml/current_obs/CDEA2.rss</rss_url>
            	<xml_url>http://weather.gov/xml/current_obs/CDEA2.xml</xml_url>
	</station>

	<station>
		<station_id>CSPA2</station_id>
		<state>AK</state>
            	<station_name>Cape Spencer</station_name>
		<latitude>58.199</latitude>
		<longitude>-136.639</longitude>
            	<html_url>http://weather.noaa.gov/weather/current/CSPA2.html</html_url>
            	<rss_url>http://weather.gov/xml/current_obs/CSPA2.rss</rss_url>
            	<xml_url>http://weather.gov/xml/current_obs/CSPA2.xml</xml_url>
	</station>

	<station>
		<station_id>SDIA2</station_id>
		<state>AK</state>
            	<station_name>South Douglas</station_name>
		<latitude>58.277</latitude>
		<longitude>-134.389</longitude>
            	<html_url>http://weather.noaa.gov/weather/current/SDIA2.html</html_url>
            	<rss_url>http://weather.gov/xml/current_obs/SDIA2.rss</rss_url>
            	<xml_url>http://weather.gov/xml/current_obs/SDIA2.xml</xml_url>
	</station>

	<station>
		<station_id>PBPA2</station_id>
		<state>AK</state>
            	<station_name>Point Bishop</station_name>
		<latitude>58.203</latitude>
		<longitude>-134.148</longitude>
            	<html_url>http://weather.noaa.gov/weather/current/PBPA2.html</html_url>
            	<rss_url>http://weather.gov/xml/current_obs/PBPA2.rss</rss_url>
            	<xml_url>http://weather.gov/xml/current_obs/PBPA2.xml</xml_url>
	</station>

	<station>
		<station_id>PAIG</station_id>
		<state>AK</state>
            	<station_name>Igiugig Airport</station_name>
		<latitude>59.324</latitude>
		<longitude>-155.902</longitude>
            	<html_url>http://weather.noaa.gov/weather/current/PAIG.html</html_url>
            	<rss_url>http://weather.gov/xml/current_obs/PAIG.rss</rss_url>
            	<xml_url>http://weather.gov/xml/current_obs/PAIG.xml</xml_url>
	</station>

	<station>
		<station_id>PAMB</station_id>
		<state>AK</state>
            	<station_name>Manokotak Airport</station_name>
		<latitude>58.9902</latitude>
		<longitude>-159.05</longitude>
            	<html_url>http://weather.noaa.gov/weather/current/PAMB.html</html_url>
            	<rss_url>http://weather.gov/xml/current_obs/PAMB.rss</rss_url>
            	<xml_url>http://weather.gov/xml/current_obs/PAMB.xml</xml_url>
	</station>

	<station>
		<station_id>PAPN</station_id>
		<state>AK</state>
            	<station_name>Pilot Point Airport</station_name>
		<latitude>57.5804</latitude>
		<longitude>-157.572</longitude>
            	<html_url>http://weather.noaa.gov/weather/current/PAPN.html</html_url>
            	<rss_url>http://weather.gov/xml/current_obs/PAPN.rss</rss_url>
            	<xml_url>http://weather.gov/xml/current_obs/PAPN.xml</xml_url>
	</station>

	<station>
		<station_id>PAPM</station_id>
		<state>AK</state>
            	<station_name>Platinum Airport</station_name>
		<latitude>59.0114</latitude>
		<longitude>-161.82</longitude>
            	<html_url>http://weather.noaa.gov/weather/current/PAPM.html</html_url>
            	<rss_url>http://weather.gov/xml/current_obs/PAPM.rss</rss_url>
            	<xml_url>http://weather.gov/xml/current_obs/PAPM.xml</xml_url>
	</station>

	<station>
		<station_id>PAGN</station_id>
		<state>AK</state>
            	<station_name>Angoon Seaplane Base</station_name>
		<latitude>57.5036</latitude>
		<longitude>-134.585</longitude>
            	<html_url>http://weather.noaa.gov/weather/current/PAGN.html</html_url>
            	<rss_url>http://weather.gov/xml/current_obs/PAGN.rss</rss_url>
            	<xml_url>http://weather.gov/xml/current_obs/PAGN.xml</xml_url>
	</station>

	<station>
		<station_id>PAFS</station_id>
		<state>AK</state>
            	<station_name>Nikolai Airport</station_name>
		<latitude>63.0186</latitude>
		<longitude>-154.358</longitude>
            	<html_url>http://weather.noaa.gov/weather/current/PAFS.html</html_url>
            	<rss_url>http://weather.gov/xml/current_obs/PAFS.rss</rss_url>
            	<xml_url>http://weather.gov/xml/current_obs/PAFS.xml</xml_url>
	</station>

	<station>
		<station_id>PATQ</station_id>
		<state>AK</state>
            	<station_name>Atqasuk Edward Burnell Sr. Memorial Airport</station_name>
		<latitude>70.4673</latitude>
		<longitude>-157.436</longitude>
            	<html_url>http://weather.noaa.gov/weather/current/PATQ.html</html_url>
            	<rss_url>http://weather.gov/xml/current_obs/PATQ.rss</rss_url>
            	<xml_url>http://weather.gov/xml/current_obs/PATQ.xml</xml_url>
	</station>

	<station>
		<station_id>PALP</station_id>
		<state>AK</state>
            	<station_name>Alpine Airstrip</station_name>
		<latitude>70.3443</latitude>
		<longitude>-150.945</longitude>
            	<html_url>http://weather.noaa.gov/weather/current/PALP.html</html_url>
            	<rss_url>http://weather.gov/xml/current_obs/PALP.rss</rss_url>
            	<xml_url>http://weather.gov/xml/current_obs/PALP.xml</xml_url>
	</station>

	<station>
		<station_id>PAMK</station_id>
		<state>AK</state>
            	<station_name>St Michael Airport</station_name>
		<latitude>63.4901</latitude>
		<longitude>-162.11</longitude>
            	<html_url>http://weather.noaa.gov/weather/current/PAMK.html</html_url>
            	<rss_url>http://weather.gov/xml/current_obs/PAMK.rss</rss_url>
            	<xml_url>http://weather.gov/xml/current_obs/PAMK.xml</xml_url>
	</station>

	<station>
		<station_id>PAMO</station_id>
		<state>AK</state>
            	<station_name>Mountain Village Airport</station_name>
		<latitude>62.0954</latitude>
		<longitude>-163.682</longitude>
            	<html_url>http://weather.noaa.gov/weather/current/PAMO.html</html_url>
            	<rss_url>http://weather.gov/xml/current_obs/PAMO.rss</rss_url>
            	<xml_url>http://weather.gov/xml/current_obs/PAMO.xml</xml_url>
	</station>

	<station>
		<station_id>PACM</station_id>
		<state>AK</state>
            	<station_name>Scammon Bay Airport</station_name>
		<latitude>61.8453</latitude>
		<longitude>-165.571</longitude>
            	<html_url>http://weather.noaa.gov/weather/current/PACM.html</html_url>
            	<rss_url>http://weather.gov/xml/current_obs/PACM.rss</rss_url>
            	<xml_url>http://weather.gov/xml/current_obs/PACM.xml</xml_url>
	</station>

	<station>
		<station_id>PAHC</station_id>
		<state>AK</state>
            	<station_name>Holy Cross Airport</station_name>
		<latitude>62.1883</latitude>
		<longitude>-159.775</longitude>
            	<html_url>http://weather.noaa.gov/weather/current/PAHC.html</html_url>
            	<rss_url>http://weather.gov/xml/current_obs/PAHC.rss</rss_url>
            	<xml_url>http://weather.gov/xml/current_obs/PAHC.xml</xml_url>
	</station>

	<station>
		<station_id>PARS</station_id>
		<state>AK</state>
            	<station_name>Russian Mission Airport</station_name>
		<latitude>61.7749</latitude>
		<longitude>-161.319</longitude>
            	<html_url>http://weather.noaa.gov/weather/current/PARS.html</html_url>
            	<rss_url>http://weather.gov/xml/current_obs/PARS.rss</rss_url>
            	<xml_url>http://weather.gov/xml/current_obs/PARS.xml</xml_url>
	</station>

	<station>
		<station_id>PARY</station_id>
		<state>AK</state>
            	<station_name>Ruby Airport</station_name>
		<latitude>64.7272</latitude>
		<longitude>-155.47</longitude>
            	<html_url>http://weather.noaa.gov/weather/current/PARY.html</html_url>
            	<rss_url>http://weather.gov/xml/current_obs/PARY.rss</rss_url>
            	<xml_url>http://weather.gov/xml/current_obs/PARY.xml</xml_url>
	</station>

	<station>
		<station_id>PATL</station_id>
		<state>AK</state>
            	<station_name>Tatalina LRRS Airport</station_name>
		<latitude>62.8944</latitude>
		<longitude>-155.977</longitude>
            	<html_url>http://weather.noaa.gov/weather/current/PATL.html</html_url>
            	<rss_url>http://weather.gov/xml/current_obs/PATL.rss</rss_url>
            	<xml_url>http://weather.gov/xml/current_obs/PATL.xml</xml_url>
	</station>

	<station>
		<station_id>PALG</station_id>
		<state>AK</state>
            	<station_name>Kalskag Airport</station_name>
		<latitude>61.5363</latitude>
		<longitude>-160.341</longitude>
            	<html_url>http://weather.noaa.gov/weather/current/PALG.html</html_url>
            	<rss_url>http://weather.gov/xml/current_obs/PALG.rss</rss_url>
            	<xml_url>http://weather.gov/xml/current_obs/PALG.xml</xml_url>
	</station>

	<station>
		<station_id>PAOO</station_id>
		<state>AK</state>
            	<station_name>Toksook Bay Airport</station_name>
		<latitude>60.5414</latitude>
		<longitude>-165.087</longitude>
            	<html_url>http://weather.noaa.gov/weather/current/PAOO.html</html_url>
            	<rss_url>http://weather.gov/xml/current_obs/PAOO.rss</rss_url>
            	<xml_url>http://weather.gov/xml/current_obs/PAOO.xml</xml_url>
	</station>

	<station>
		<station_id>PADM</station_id>
		<state>AK</state>
            	<station_name>Marshall Don Hunter Sr Airport</station_name>
		<latitude>61.8643</latitude>
		<longitude>-162.026</longitude>
            	<html_url>http://weather.noaa.gov/weather/current/PADM.html</html_url>
            	<rss_url>http://weather.gov/xml/current_obs/PADM.rss</rss_url>
            	<xml_url>http://weather.gov/xml/current_obs/PADM.xml</xml_url>
	</station>

	<station>
		<station_id>PAVC</station_id>
		<state>AK</state>
            	<station_name>King Cove Airport</station_name>
		<latitude>55.1163</latitude>
		<longitude>-162.266</longitude>
            	<html_url>http://weather.noaa.gov/weather/current/PAVC.html</html_url>
            	<rss_url>http://weather.gov/xml/current_obs/PAVC.rss</rss_url>
            	<xml_url>http://weather.gov/xml/current_obs/PAVC.xml</xml_url>
	</station>

	<station>
		<station_id>PAOU</station_id>
		<state>AK</state>
            	<station_name>Nelson Lagoon Airport</station_name>
		<latitude>56.0075</latitude>
		<longitude>-161.16</longitude>
            	<html_url>http://weather.noaa.gov/weather/current/PAOU.html</html_url>
            	<rss_url>http://weather.gov/xml/current_obs/PAOU.rss</rss_url>
            	<xml_url>http://weather.gov/xml/current_obs/PAOU.xml</xml_url>
	</station>

	<station>
		<station_id>PAHL</station_id>
		<state>AK</state>
            	<station_name>Huslia Airport</station_name>
		<latitude>65.6979</latitude>
		<longitude>-156.351</longitude>
            	<html_url>http://weather.noaa.gov/weather/current/PAHL.html</html_url>
            	<rss_url>http://weather.gov/xml/current_obs/PAHL.rss</rss_url>
            	<xml_url>http://weather.gov/xml/current_obs/PAHL.xml</xml_url>
	</station>

	<station>
		<station_id>ALIA2</station_id>
		<state>AK</state>
            	<station_name>9457804 - Alitak</station_name>
		<latitude>56.898</latitude>
		<longitude>-154.247</longitude>
            	<html_url>http://weather.noaa.gov/weather/current/ALIA2.html</html_url>
            	<rss_url>http://weather.gov/xml/current_obs/ALIA2.rss</rss_url>
            	<xml_url>http://weather.gov/xml/current_obs/ALIA2.xml</xml_url>
	</station>

	<station>
		<station_id>ATKA2</station_id>
		<state>AK</state>
            	<station_name>9461710 - Atka</station_name>
		<latitude>52.232</latitude>
		<longitude>-174.173</longitude>
            	<html_url>http://weather.noaa.gov/weather/current/ATKA2.html</html_url>
            	<rss_url>http://weather.gov/xml/current_obs/ATKA2.rss</rss_url>
            	<xml_url>http://weather.gov/xml/current_obs/ATKA2.xml</xml_url>
	</station>

	<station>
		<station_id>ELFA2</station_id>
		<state>AK</state>
            	<station_name>9452634 - Elfin Cove</station_name>
		<latitude>58.193</latitude>
		<longitude>-136.343</longitude>
            	<html_url>http://weather.noaa.gov/weather/current/ELFA2.html</html_url>
            	<rss_url>http://weather.gov/xml/current_obs/ELFA2.rss</rss_url>
            	<xml_url>http://weather.gov/xml/current_obs/ELFA2.xml</xml_url>
	</station>

	<station>
		<station_id>HMRA2</station_id>
		<state>AK</state>
            	<station_name>Kachemak Bay Reserve</station_name>
		<latitude>59.601</latitude>
		<longitude>-151.416</longitude>
            	<html_url>http://weather.noaa.gov/weather/current/HMRA2.html</html_url>
            	<rss_url>http://weather.gov/xml/current_obs/HMRA2.rss</rss_url>
            	<xml_url>http://weather.gov/xml/current_obs/HMRA2.xml</xml_url>
	</station>

	<station>
		<station_id>KCHA2</station_id>
		<state>AK</state>
            	<station_name>Homer Deep, Kachemak Bay Reserve</station_name>
		<latitude>59.603</latitude>
		<longitude>-151.408</longitude>
            	<html_url>http://weather.noaa.gov/weather/current/KCHA2.html</html_url>
            	<rss_url>http://weather.gov/xml/current_obs/KCHA2.rss</rss_url>
            	<xml_url>http://weather.gov/xml/current_obs/KCHA2.xml</xml_url>
	</station>

	<station>
		<station_id>KGCA2</station_id>
		<state>AK</state>
            	<station_name>9459881 - King Cove</station_name>
		<latitude>55.062</latitude>
		<longitude>-162.327</longitude>
            	<html_url>http://weather.noaa.gov/weather/current/KGCA2.html</html_url>
            	<rss_url>http://weather.gov/xml/current_obs/KGCA2.rss</rss_url>
            	<xml_url>http://weather.gov/xml/current_obs/KGCA2.xml</xml_url>
	</station>

	<station>
		<station_id>LCNA2</station_id>
		<state>AK</state>
            	<station_name>Lincoln Rock</station_name>
		<latitude>56.057</latitude>
		<longitude>-132.696</longitude>
            	<html_url>http://weather.noaa.gov/weather/current/LCNA2.html</html_url>
            	<rss_url>http://weather.gov/xml/current_obs/LCNA2.rss</rss_url>
            	<xml_url>http://weather.gov/xml/current_obs/LCNA2.xml</xml_url>
	</station>

	<station>
		<station_id>OVIA2</station_id>
		<state>AK</state>
            	<station_name>9455500 - Seldovia</station_name>
		<latitude>59.44</latitude>
		<longitude>-151.72</longitude>
            	<html_url>http://weather.noaa.gov/weather/current/OVIA2.html</html_url>
            	<rss_url>http://weather.gov/xml/current_obs/OVIA2.rss</rss_url>
            	<xml_url>http://weather.gov/xml/current_obs/OVIA2.xml</xml_url>
	</station>

	<station>
		<station_id>SEQA2</station_id>
		<state>AK</state>
            	<station_name>Katchemak Bay near Seldovia</station_name>
		<latitude>59.441</latitude>
		<longitude>-151.719</longitude>
            	<html_url>http://weather.noaa.gov/weather/current/SEQA2.html</html_url>
            	<rss_url>http://weather.gov/xml/current_obs/SEQA2.rss</rss_url>
            	<xml_url>http://weather.gov/xml/current_obs/SEQA2.xml</xml_url>
	</station>

	<station>
		<station_id>SNDA2</station_id>
		<state>AK</state>
            	<station_name>9459450 - Sand Point</station_name>
		<latitude>55.337</latitude>
		<longitude>-160.502</longitude>
            	<html_url>http://weather.noaa.gov/weather/current/SNDA2.html</html_url>
            	<rss_url>http://weather.gov/xml/current_obs/SNDA2.rss</rss_url>
            	<xml_url>http://weather.gov/xml/current_obs/SNDA2.xml</xml_url>
	</station>

	<station>
		<station_id>PACE</station_id>
		<state>AK</state>
            	<station_name>Central Airport</station_name>
		<latitude>65.5739</latitude>
		<longitude>-144.781</longitude>
            	<html_url>http://weather.noaa.gov/weather/current/PACE.html</html_url>
            	<rss_url>http://weather.gov/xml/current_obs/PACE.rss</rss_url>
            	<xml_url>http://weather.gov/xml/current_obs/PACE.xml</xml_url>
	</station>

	<station>
		<station_id>K3A1</station_id>
		<state>AL</state>
            	<station_name>Folsom Field Airport</station_name>
		<latitude>34.269</latitude>
		<longitude>-86.858</longitude>
            	<html_url>http://weather.noaa.gov/weather/current/K3A1.html</html_url>
            	<rss_url>http://weather.gov/xml/current_obs/K3A1.rss</rss_url>
            	<xml_url>http://weather.gov/xml/current_obs/K3A1.xml</xml_url>
	</station>

	<station>
		<station_id>K4A9</station_id>
		<state>AL</state>
            	<station_name>Isbell Field Airport</station_name>
		<latitude>34.467</latitude>
		<longitude>-85.717</longitude>
            	<html_url>http://weather.noaa.gov/weather/current/K4A9.html</html_url>
            	<rss_url>http://weather.gov/xml/current_obs/K4A9.rss</rss_url>
            	<xml_url>http://weather.gov/xml/current_obs/K4A9.xml</xml_url>
	</station>

	<station>
		<station_id>K79J</station_id>
		<state>AL</state>
            	<station_name>Andalusia-Opp Municipal Airport</station_name>
		<latitude>31.317</latitude>
		<longitude>-86.4</longitude>
            	<html_url>http://weather.noaa.gov/weather/current/K79J.html</html_url>
            	<rss_url>http://weather.gov/xml/current_obs/K79J.rss</rss_url>
            	<xml_url>http://weather.gov/xml/current_obs/K79J.xml</xml_url>
	</station>

	<station>
		<station_id>KALX</station_id>
		<state>AL</state>
            	<station_name>Alexander City/T.C. Russell Field</station_name>
		<latitude>32.915</latitude>
		<longitude>-85.963</longitude>
            	<html_url>http://weather.noaa.gov/weather/current/KALX.html</html_url>
            	<rss_url>http://weather.gov/xml/current_obs/KALX.rss</rss_url>
            	<xml_url>http://weather.gov/xml/current_obs/KALX.xml</xml_url>
	</station>

	<station>
		<station_id>KANB</station_id>
		<state>AL</state>
            	<station_name>Anniston Metropolitan Airport</station_name>
		<latitude>33.59</latitude>
		<longitude>-85.85</longitude>
            	<html_url>http://weather.noaa.gov/weather/current/KANB.html</html_url>
            	<rss_url>http://weather.gov/xml/current_obs/KANB.rss</rss_url>
            	<xml_url>http://weather.gov/xml/current_obs/KANB.xml</xml_url>
	</station>

	<station>
		<station_id>KAUO</station_id>
		<state>AL</state>
            	<station_name>Auburn-Opelika Airport</station_name>
		<latitude>32.62</latitude>
		<longitude>-85.44</longitude>
            	<html_url>http://weather.noaa.gov/weather/current/KAUO.html</html_url>
            	<rss_url>http://weather.gov/xml/current_obs/KAUO.rss</rss_url>
            	<xml_url>http://weather.gov/xml/current_obs/KAUO.xml</xml_url>
	</station>

	<station>
		<station_id>KBFM</station_id>
		<state>AL</state>
            	<station_name>Mobile Downtown Airport</station_name>
		<latitude>30.64</latitude>
		<longitude>-88.07</longitude>
            	<html_url>http://weather.noaa.gov/weather/current/KBFM.html</html_url>
            	<rss_url>http://weather.gov/xml/current_obs/KBFM.rss</rss_url>
            	<xml_url>http://weather.gov/xml/current_obs/KBFM.xml</xml_url>
	</station>

	<station>
		<station_id>KBHM</station_id>
		<state>AL</state>
            	<station_name>Birmingham International Airport</station_name>
		<latitude>33.56</latitude>
		<longitude>-86.75</longitude>
            	<html_url>http://weather.noaa.gov/weather/current/KBHM.html</html_url>
            	<rss_url>http://weather.gov/xml/current_obs/KBHM.rss</rss_url>
            	<xml_url>http://weather.gov/xml/current_obs/KBHM.xml</xml_url>
	</station>

	<station>
		<station_id>KCKL</station_id>
		<state>AL</state>
            	<station_name>Centreville</station_name>
		<latitude>32.9</latitude>
		<longitude>-87.25</longitude>
            	<html_url>http://weather.noaa.gov/weather/current/KCKL.html</html_url>
            	<rss_url>http://weather.gov/xml/current_obs/KCKL.rss</rss_url>
            	<xml_url>http://weather.gov/xml/current_obs/KCKL.xml</xml_url>
	</station>

	<station>
		<station_id>KDCU</station_id>
		<state>AL</state>
            	<station_name>Decatur, Pryor Field</station_name>
		<latitude>34.66</latitude>
		<longitude>-86.94</longitude>
            	<html_url>http://weather.noaa.gov/weather/current/KDCU.html</html_url>
            	<rss_url>http://weather.gov/xml/current_obs/KDCU.rss</rss_url>
            	<xml_url>http://weather.gov/xml/current_obs/KDCU.xml</xml_url>
	</station>

	<station>
		<station_id>KDHN</station_id>
		<state>AL</state>
            	<station_name>Dothan Airport</station_name>
		<latitude>31.32</latitude>
		<longitude>-85.45</longitude>
            	<html_url>http://weather.noaa.gov/weather/current/KDHN.html</html_url>
            	<rss_url>http://weather.gov/xml/current_obs/KDHN.rss</rss_url>
            	<xml_url>http://weather.gov/xml/current_obs/KDHN.xml</xml_url>
	</station>

	<station>
		<station_id>KEET</station_id>
		<state>AL</state>
            	<station_name>Calera, Shelby County Airport</station_name>
		<latitude>33.18</latitude>
		<longitude>-86.78</longitude>
            	<html_url>http://weather.noaa.gov/weather/current/KEET.html</html_url>
            	<rss_url>http://weather.gov/xml/current_obs/KEET.rss</rss_url>
            	<xml_url>http://weather.gov/xml/current_obs/KEET.xml</xml_url>
	</station>

	<station>
		<station_id>KGAD</station_id>
		<state>AL</state>
            	<station_name>Gadsden Municipal Automatic Weather Observing</station_name>
		<latitude>33.97</latitude>
		<longitude>-86.09</longitude>
            	<html_url>http://weather.noaa.gov/weather/current/KGAD.html</html_url>
            	<rss_url>http://weather.gov/xml/current_obs/KGAD.rss</rss_url>
            	<xml_url>http://weather.gov/xml/current_obs/KGAD.xml</xml_url>
	</station>

	<station>
		<station_id>KGZH</station_id>
		<state>AL</state>
            	<station_name>Evergreen, Middleton Field</station_name>
		<latitude>31.42</latitude>
		<longitude>-87.04</longitude>
            	<html_url>http://weather.noaa.gov/weather/current/KGZH.html</html_url>
            	<rss_url>http://weather.gov/xml/current_obs/KGZH.rss</rss_url>
            	<xml_url>http://weather.gov/xml/current_obs/KGZH.xml</xml_url>
	</station>

	<station>
		<station_id>KHSV</station_id>
		<state>AL</state>
            	<station_name>Huntsville International / Jones Field</station_name>
		<latitude>34.66</latitude>
		<longitude>-86.77</longitude>
            	<html_url>http://weather.noaa.gov/weather/current/KHSV.html</html_url>
            	<rss_url>http://weather.gov/xml/current_obs/KHSV.rss</rss_url>
            	<xml_url>http://weather.gov/xml/current_obs/KHSV.xml</xml_url>
	</station>

	<station>
		<station_id>KHUA</station_id>
		<state>AL</state>
            	<station_name>Redstone Army Airfield</station_name>
		<latitude>34.683</latitude>
		<longitude>-86.683</longitude>
            	<html_url>http://weather.noaa.gov/weather/current/KHUA.html</html_url>
            	<rss_url>http://weather.gov/xml/current_obs/KHUA.rss</rss_url>
            	<xml_url>http://weather.gov/xml/current_obs/KHUA.xml</xml_url>
	</station>

	<station>
		<station_id>KM82</station_id>
		<state>AL</state>
            	<station_name>Huntsville, Madison County Executive Airport</station_name>
		<latitude>34.85</latitude>
		<longitude>-86.55</longitude>
            	<html_url>http://weather.noaa.gov/weather/current/KM82.html</html_url>
            	<rss_url>http://weather.gov/xml/current_obs/KM82.rss</rss_url>
            	<xml_url>http://weather.gov/xml/current_obs/KM82.xml</xml_url>
	</station>

	<station>
		<station_id>KMDQ</station_id>
		<state>AL</state>
            	<station_name>Huntsville-Madison Co Exec Airport</station_name>
		<latitude>34.86</latitude>
		<longitude>-86.56</longitude>
            	<html_url>http://weather.noaa.gov/weather/current/KMDQ.html</html_url>
            	<rss_url>http://weather.gov/xml/current_obs/KMDQ.rss</rss_url>
            	<xml_url>http://weather.gov/xml/current_obs/KMDQ.xml</xml_url>
	</station>

	<station>
		<station_id>KMGM</station_id>
		<state>AL</state>
            	<station_name>Montgomery, Dannelly Field</station_name>
		<latitude>32.3</latitude>
		<longitude>-86.4</longitude>
            	<html_url>http://weather.noaa.gov/weather/current/KMGM.html</html_url>
            	<rss_url>http://weather.gov/xml/current_obs/KMGM.rss</rss_url>
            	<xml_url>http://weather.gov/xml/current_obs/KMGM.xml</xml_url>
	</station>

	<station>
		<station_id>KMOB</station_id>
		<state>AL</state>
            	<station_name>Mobile Regional Airport</station_name>
		<latitude>30.68</latitude>
		<longitude>-88.25</longitude>
            	<html_url>http://weather.noaa.gov/weather/current/KMOB.html</html_url>
            	<rss_url>http://weather.gov/xml/current_obs/KMOB.rss</rss_url>
            	<xml_url>http://weather.gov/xml/current_obs/KMOB.xml</xml_url>
	</station>

	<station>
		<station_id>KMSL</station_id>
		<state>AL</state>
            	<station_name>Muscle Shoals, North West Alabama Regional Airport</station_name>
		<latitude>34.75</latitude>
		<longitude>-87.61</longitude>
            	<html_url>http://weather.noaa.gov/weather/current/KMSL.html</html_url>
            	<rss_url>http://weather.gov/xml/current_obs/KMSL.rss</rss_url>
            	<xml_url>http://weather.gov/xml/current_obs/KMSL.xml</xml_url>
	</station>

	<station>
		<station_id>KMXF</station_id>
		<state>AL</state>
            	<station_name>Maxwell Air Force Base / Montgomery</station_name>
		<latitude>32.383</latitude>
		<longitude>-86.367</longitude>
            	<html_url>http://weather.noaa.gov/weather/current/KMXF.html</html_url>
            	<rss_url>http://weather.gov/xml/current_obs/KMXF.rss</rss_url>
            	<xml_url>http://weather.gov/xml/current_obs/KMXF.xml</xml_url>
	</station>

	<station>
		<station_id>KOZR</station_id>
		<state>AL</state>
            	<station_name>Cairns Army Air Field / Ozark</station_name>
		<latitude>31.283</latitude>
		<longitude>-85.717</longitude>
            	<html_url>http://weather.noaa.gov/weather/current/KOZR.html</html_url>
            	<rss_url>http://weather.gov/xml/current_obs/KOZR.rss</rss_url>
            	<xml_url>http://weather.gov/xml/current_obs/KOZR.xml</xml_url>
	</station>

	<station>
		<station_id>KTCL</station_id>
		<state>AL</state>
            	<station_name>Tuscaloosa Regional Airport</station_name>
		<latitude>33.23</latitude>
		<longitude>-87.62</longitude>
